{
  "StationList": [
  ],
  "SeviceCenterList": [
    {
      "Id": "085c9310-8899-4381-b0e6-04355215aa11",
      "GeoPoint": {
        "Latitude": 22.566995,
        "Longitude": 120.356397
      },
      "ZipCode": "812",
      "City": "{\"List\":[{\"Value\":\"Kaohsiung City\",\"Lang\":\"en-US\"},{\"Value\":\"高雄市\",\"Lang\":\"zh-TW\"}]}",
      "District": "{\"List\":[{\"Lang\":\"en-US\", \"Value\":\"Xiaogang Dist.,\"}, {\"Lang\":\"zh-TW\", \"Value\":\"高雄市\"}]}",
      "Address": "{\"List\":[{\"Lang\":\"en-US\", \"Value\":\"No.369.371, Hanwen Rd., Xiaogang Dist., Kaohsiung City\"}, {\"Lang\":\"zh-TW\", \"Value\":\"高雄市小港區漢民路369.371號\"}]}",
      "Type": 206,
      "Name": "{\"List\":[{\"Lang\":\"en-US\", \"Value\":\"Xiaogang  Hanwen\"}, {\"Lang\":\"zh-TW\", \"Value\":\"小港漢民門市\"}]}",
      "Phone": "07-8061678",
      "AvailableTime": "A///wAAAA///wAAAA///wAAAA///wAAAA///wAAAA///wAAAA///wAAA",
      "State": 1,
      "UpdateTime": "2018-08-16T03:34:33.81Z"
    },
    {
      "Id": "593d2859-6591-4aed-b143-04492579b4a5",
      "GeoPoint": {
        "Latitude": 25.170399,
        "Longitude": 121.44286
      },
      "ZipCode": "252",
      "City": "{\"List\":[{\"Value\":\"New Taipei City\",\"Lang\":\"en-US\"},{\"Value\":\"新北市\",\"Lang\":\"zh-TW\"}]}",
      "District": "{\"List\":[{\"Lang\":\"en-US\", \"Value\":\"Tamsui Dist.,\"}, {\"Lang\":\"zh-TW\", \"Value\":\"淡水區\"}]}",
      "Address": "{\"List\":[{\"Lang\":\"en-US\", \"Value\":\"No. 71, Zhongshan Rd, Tamsui Dist., New Taipei City, 251\"}, {\"Lang\":\"zh-TW\", \"Value\":\"新北市淡水區中山路71號\"}]}",
      "Type": 240,
      "Name": "{\"List\":[{\"Lang\":\"en-US\", \"Value\":\"Tamsui Airport\"}, {\"Lang\":\"zh-TW\", \"Value\":\"新北淡水服務中心\"}]}",
      "Phone": "02-26209701",
      "AvailableTime": "A///wAAAA///wAAAA///wAAAA///wAAAA///wAAAA///wAAAA///wAAA",
      "State": 1,
      "UpdateTime": "2018-03-28T16:08:09.16Z"
    },
    {
      "Id": "42104592-6896-4118-bab1-07c7e7ac6964",
      "GeoPoint": {
        "Latitude": 25.082757,
        "Longitude": 121.523606
      },
      "ZipCode": "111",
      "City": "{\"List\":[{\"Value\":\"Taipei City\",\"Lang\":\"en-US\"},{\"Value\":\"台北市\",\"Lang\":\"zh-TW\"}]}",
      "District": "{\"List\":[{\"Lang\":\"en-US\", \"Value\":\"Shihlin Dist.,\"}, {\"Lang\":\"zh-TW\", \"Value\":\"士林區\"}]}",
      "Address": "{\"List\":[{\"Lang\":\"en-US\", \"Value\":\"No.83, Sec. 4, Chengde Rd., Shihlin Dist., Taipei City\"}, {\"Lang\":\"zh-TW\", \"Value\":\"台北市士林區承德路四段83號\"}]}",
      "Type": 240,
      "Name": "{\"List\":[{\"Lang\":\"en-US\", \"Value\":\"Shilin Airport\"}, {\"Lang\":\"zh-TW\", \"Value\":\"士林劍潭服務中心\"}]}",
      "Phone": "02-28855288",
      "AvailableTime": "A///wAAAA///wAAAA///wAAAA///wAAAA///wAAAA///wAAAA///wAAA",
      "State": 1,
      "UpdateTime": "2018-08-16T04:34:33.873Z"
    },
    {
      "Id": "32865c56-c0d6-46af-8053-099e909a2a00",
      "GeoPoint": {
        "Latitude": 25.01434,
        "Longitude": 121.305117
      },
      "ZipCode": "330",
      "City": "{\"List\":[{\"Value\":\"Taoyuan City\",\"Lang\":\"en-US\"},{\"Value\":\"桃園市\",\"Lang\":\"zh-TW\"}]}",
      "District": "{\"List\":[{\"Lang\":\"en-US\", \"Value\":\"Taoyuan Dist.,\"}, {\"Lang\":\"zh-TW\", \"Value\":\"桃園區\"}]}",
      "Address": "{\"List\":[{\"Lang\":\"en-US\", \"Value\":\"No.163, Sec. 1, Daxing W. Rd., Taoyuan Dist., Taoyuan City\"}, {\"Lang\":\"zh-TW\", \"Value\":\"桃園市桃園區新埔里大興西路一段163號\"}]}",
      "Type": 48,
      "Name": "{\"List\":[{\"Lang\":\"en-US\", \"Value\":\"TaoYuan Yi-wen Store\"}, {\"Lang\":\"zh-TW\", \"Value\":\"桃園藝文服務中心\"}]}",
      "Phone": "0981-282-200",
      "AvailableTime": "AP//wAAAAP//wAAAAP//wAAAAP//wAAAAP//wAAAAP//wAAAAAAAAAAA",
      "State": 1,
      "UpdateTime": "2018-08-19T01:34:36.527Z"
    },
    {
      "Id": "2f8b5e53-25ee-4351-953e-0a7295db1dbf",
      "GeoPoint": {
        "Latitude": 25.0872911,
        "Longitude": 121.5257275
      },
      "ZipCode": "111",
      "City": "{\"List\":[{\"Value\":\"Taipei City\",\"Lang\":\"en-US\"},{\"Value\":\"台北市\",\"Lang\":\"zh-TW\"}]}",
      "District": "{\"List\":[{\"Lang\":\"en-US\", \"Value\":\"Shilin Dist.\"}, {\"Lang\":\"zh-TW\", \"Value\":\"士林區\"}]}",
      "Address": "{\"List\":[{\"Lang\":\"en-US\", \"Value\":\"No.65, Wenlin Rd., Shilin Dist., Taipei City\"}, {\"Lang\":\"zh-TW\", \"Value\":\"台北市士林區文林路65號\"}]}",
      "Type": 198,
      "Name": "{\"List\":[{\"Lang\":\"en-US\", \"Value\":\"Shilin Wenlin Store\"}, {\"Lang\":\"zh-TW\", \"Value\":\"士林文林店\"}]}",
      "Phone": "02-28803222",
      "AvailableTime": "AA///AAAAA///AAAAA///AAAAA///AAAAA///AAAAA///AAAAA///AAA",
      "State": 1,
      "UpdateTime": "2017-03-15T02:27:10.59Z"
    },
    {
      "Id": "43385c94-ecf4-491e-b4d2-0eecab60d813",
      "GeoPoint": {
        "Latitude": 25.082363,
        "Longitude": 121.571897
      },
      "ZipCode": "114",
      "City": "{\"List\":[{\"Value\":\"Taipei City\",\"Lang\":\"en-US\"},{\"Value\":\"台北市\",\"Lang\":\"zh-TW\"}]}",
      "District": "{\"List\":[{\"Lang\":\"en-US\", \"Value\":\"Neihu Dist.,\"}, {\"Lang\":\"zh-TW\", \"Value\":\"台北市\"}]}",
      "Address": "{\"List\":[{\"Lang\":\"en-US\", \"Value\":\"No.17, Aly. 19, Ln. 411, Sec. 1, Neihu Rd., Neihu Dist., Taipei City\"}, {\"Lang\":\"zh-TW\", \"Value\":\"台北市內湖區內湖路一段411巷19弄17號\"}]}",
      "Type": 240,
      "Name": "{\"List\":[{\"Lang\":\"en-US\", \"Value\":\"Neihu Shihu\"}, {\"Lang\":\"zh-TW\", \"Value\":\"內湖西湖服務中心\"}]}",
      "Phone": "02-26279963",
      "AvailableTime": "AP//wAAAAP//wAAAAP//wAAAAP//wAAAAP//wAAAAP//wAAAAAAAAAAA",
      "State": 1,
      "UpdateTime": "2018-08-16T03:34:33.653Z"
    },
    {
      "Id": "5adca53c-de78-4733-8858-0f83ae5ca1f2",
      "GeoPoint": {
        "Latitude": 23.0289448,
        "Longitude": 120.2141105
      },
      "ZipCode": "709",
      "City": "{\"List\":[{\"Value\":\"Tainan City\",\"Lang\":\"en-US\"},{\"Value\":\"台南市\",\"Lang\":\"zh-TW\"}]}",
      "District": "{\"List\":[{\"Lang\":\"en-US\", \"Value\":\"Annan Dist.,\"}, {\"Lang\":\"zh-TW\", \"Value\":\"台南市\"}]}",
      "Address": "{\"List\":[{\"Lang\":\"en-US\", \"Value\":\"No.158, Sec. 1, Anhe Rd., Annan Dist., Tainan City\"}, {\"Lang\":\"zh-TW\", \"Value\":\"台南市安南區安和路一段158號\"}]}",
      "Type": 48,
      "Name": "{\"List\":[{\"Lang\":\"en-US\", \"Value\":\"Annan Anhe\"}, {\"Lang\":\"zh-TW\", \"Value\":\"安南安和服務中心\"}]}",
      "Phone": "06-251-8259",
      "AvailableTime": "A///wAAAA///wAAAA///wAAAA///wAAAA///wAAAA///wAAAA///wAAA",
      "State": 1,
      "UpdateTime": "2018-08-13T09:34:35.757Z"
    },
    {
      "Id": "313fcfb1-dc7e-46c1-a7c6-138b5180e8ad",
      "GeoPoint": {
        "Latitude": 25.0356839,
        "Longitude": 121.56681
      },
      "ZipCode": "100",
      "City": "{\"List\":[{\"Value\":\"Taipei City\",\"Lang\":\"en-US\"},{\"Value\":\"台北市\",\"Lang\":\"zh-TW\"}]}",
      "District": "{\"List\":[{\"Lang\":\"en-US\", \"Value\":\"Xinyi Dist.\"}, {\"Lang\":\"zh-TW\", \"Value\":\"信義區\"}]}",
      "Address": "{\"List\":[{\"Lang\":\"en-US\", \"Value\":\"18, Songshou Rd., Xinyi Dist., Taipei City\"}, {\"Lang\":\"zh-TW\", \"Value\":\"台北市信義區松壽路18號\"}]}",
      "Type": 142,
      "Name": "{\"List\":[{\"Lang\":\"en-US\", \"Value\":\"Global Experience Centre\"}, {\"Lang\":\"zh-TW\", \"Value\":\"全球體驗中心\"}]}",
      "Phone": "02-27298777",
      "AvailableTime": "A////AAAA////AAAA////AAAA////AAAA////AAAA////AAAA////AAA",
      "State": 2,
      "UpdateTime": "2017-06-01T03:06:59.997Z"
    },
    {
      "Id": "5bdd0252-134a-4a66-a723-149f91024e5d",
      "GeoPoint": {
        "Latitude": 23.310799,
        "Longitude": 120.312857
      },
      "ZipCode": "730",
      "City": "{\"List\":[{\"Value\":\"Tainan City\",\"Lang\":\"en-US\"},{\"Value\":\"台南市\",\"Lang\":\"zh-TW\"}]}",
      "District": "{\"List\":[{\"Lang\":\"en-US\", \"Value\":\"Xinying Dist.,\"}, {\"Lang\":\"zh-TW\", \"Value\":\"台南市\"}]}",
      "Address": "{\"List\":[{\"Lang\":\"en-US\", \"Value\":\"No.62-3, Minzhi Rd., Xinying Dist., Tainan City\"}, {\"Lang\":\"zh-TW\", \"Value\":\"台南市新營區民治路62之3號\"}]}",
      "Type": 48,
      "Name": "{\"List\":[{\"Lang\":\"en-US\", \"Value\":\"Tainan Xinyin\"}, {\"Lang\":\"zh-TW\", \"Value\":\"台南新營服務中心\"}]}",
      "Phone": "06-6325105",
      "AvailableTime": "AP//wAAAAP//wAAAAP//wAAAAP//wAAAAP//wAAAAP//wAAAAP//wAAA",
      "State": 1,
      "UpdateTime": "2018-09-08T09:45:29.477Z"
    },
    {
      "Id": "99a04c56-2205-419c-9c61-179c1fbd6f0f",
      "GeoPoint": {
        "Latitude": 23.024815,
        "Longitude": 120.254166
      },
      "ZipCode": "710",
      "City": "{\"List\":[{\"Value\":\"Tainan City\",\"Lang\":\"en-US\"},{\"Value\":\"台南市\",\"Lang\":\"zh-TW\"}]}",
      "District": "{\"List\":[{\"Lang\":\"en-US\", \"Value\":\"Yongkang Dist.,\"}, {\"Lang\":\"zh-TW\", \"Value\":\"永康區\"}]}",
      "Address": "{\"List\":[{\"Lang\":\"en-US\", \"Value\":\"No. 613, Zhongshan South Rd., Yongkang Dist., Tainan City 710\"}, {\"Lang\":\"zh-TW\", \"Value\":\"台南市永康區中山南613號\"}]}",
      "Type": 48,
      "Name": "{\"List\":[{\"Lang\":\"en-US\", \"Value\":\"YongkangChungshan\"}, {\"Lang\":\"zh-TW\", \"Value\":\"永康中山南服務中心\"}]}",
      "Phone": "0976-837-310",
      "AvailableTime": "AP//wAAAAP//wAAAAP//wAAAAP//wAAAAP//wAAAAP//wAAAAAAAAAAA",
      "State": 1,
      "UpdateTime": "2018-08-20T07:34:36.133Z"
    },
    {
      "Id": "69b7a832-22bf-4eb5-91ad-18459fbdffac",
      "GeoPoint": {
        "Latitude": 24.144725,
        "Longitude": 120.639127
      },
      "ZipCode": "408",
      "City": "{\"List\":[{\"Value\":\"Taichung City\",\"Lang\":\"en-US\"},{\"Value\":\"台中市\",\"Lang\":\"zh-TW\"}]}",
      "District": "{\"List\":[{\"Lang\":\"en-US\", \"Value\":\"Nantun Dist.,\"}, {\"Lang\":\"zh-TW\", \"Value\":\"南屯區\"}]}",
      "Address": "{\"List\":[{\"Lang\":\"en-US\", \"Value\":\"No. 702, Section 4, Henan Road, Nantun Dist., Taichung City\"}, {\"Lang\":\"zh-TW\", \"Value\":\"台中市南屯區河南路四段702之1號\"}]}",
      "Type": 240,
      "Name": "{\"List\":[{\"Lang\":\"en-US\", \"Value\":\"Nantun Henan service center\"}, {\"Lang\":\"zh-TW\", \"Value\":\"南屯河南服務中心\"}]}",
      "Phone": "04-2380-5333",
      "AvailableTime": "D///wAAAD///wAAAD///wAAAD///wAAAD///wAAAD///wAAAAAAAAAAA",
      "State": 1,
      "UpdateTime": "2018-08-19T00:34:37.057Z"
    },
    {
      "Id": "d3344470-2df0-4bd3-a30f-190cafd25a2e",
      "GeoPoint": {
        "Latitude": 22.624197,
        "Longitude": 120.301248
      },
      "ZipCode": "800",
      "City": "{\"List\":[{\"Value\":\"Kaohsiung City\",\"Lang\":\"en-US\"},{\"Value\":\"高雄市\",\"Lang\":\"zh-TW\"}]}",
      "District": "{\"List\":[{\"Lang\":\"en-US\", \"Value\":\"Xinxing Dist.,\"}, {\"Lang\":\"zh-TW\", \"Value\":\"新興區\"}]}",
      "Address": "{\"List\":[{\"Lang\":\"en-US\", \"Value\":\"No.2, Zhongshan 1st Rd., Xinxing Dist., Kaohsiung City 800\"}, {\"Lang\":\"zh-TW\", \"Value\":\"高雄市新興區中山一路2號\"}]}",
      "Type": 206,
      "Name": "{\"List\":[{\"Lang\":\"en-US\", \"Value\":\"Kaohsiung Zhongshan\"}, {\"Lang\":\"zh-TW\", \"Value\":\"高雄中山店\"}]}",
      "Phone": "0981079333",
      "AvailableTime": "AP//wAAAAP//wAAAAP//wAAAAP//wAAAAP//wAAAAP//wAAAAP//wAAA",
      "State": 1,
      "UpdateTime": "2017-03-15T02:27:10.59Z"
    },
    {
      "Id": "58044223-d7a7-4844-be36-1c94e3e2fa4f",
      "GeoPoint": {
        "Latitude": 25.066886,
        "Longitude": 121.532984
      },
      "ZipCode": "104",
      "City": "{\"List\":[{\"Value\":\"Taipei City\",\"Lang\":\"en-US\"},{\"Value\":\"台北市\",\"Lang\":\"zh-TW\"}]}",
      "District": "{\"List\":[{\"Lang\":\"en-US\", \"Value\":\"Zhongshan Dist.,\"}, {\"Lang\":\"zh-TW\", \"Value\":\"中山區\"}]}",
      "Address": "{\"List\":[{\"Lang\":\"en-US\", \"Value\":\"No.530, Songjiang Rd., Zhongshan Dist., Taipei City\"}, {\"Lang\":\"zh-TW\", \"Value\":\"台北市中山區松江路530號\"}]}",
      "Type": 240,
      "Name": "{\"List\":[{\"Lang\":\"en-US\", \"Value\":\"Zhongshan Songjiang\"}, {\"Lang\":\"zh-TW\", \"Value\":\"中山松江服務中心\"}]}",
      "Phone": "02-25960086",
      "AvailableTime": "AP//wAAAAP//wAAAAP//wAAAAP//wAAAAP//wAAAAP//wAAAAAAAAAAA",
      "State": 1,
      "UpdateTime": "2018-08-16T04:34:33.913Z"
    },
    {
      "Id": "ff5d5545-a9fc-4a4f-90c0-1ffbd33cff7f",
      "GeoPoint": {
        "Latitude": 25.03137,
        "Longitude": 121.503986
      },
      "ZipCode": "108",
      "City": "{\"List\":[{\"Value\":\"Taipei City\",\"Lang\":\"en-US\"},{\"Value\":\"台北市\",\"Lang\":\"zh-TW\"}]}",
      "District": "{\"List\":[{\"Lang\":\"en-US\", \"Value\":\"Wanhua Dist.,\"}, {\"Lang\":\"zh-TW\", \"Value\":\"萬華區\"}]}",
      "Address": "{\"List\":[{\"Lang\":\"en-US\", \"Value\":\"No.100, Sec. 2, Zhonghua Rd., Wanhua Dist., Taipei City 108\"}, {\"Lang\":\"zh-TW\", \"Value\":\"台北市萬華區中華路二段100號\"}]}",
      "Type": 48,
      "Name": "{\"List\":[{\"Lang\":\"en-US\", \"Value\":\"WanHua Zhonghua-shek\"}, {\"Lang\":\"zh-TW\", \"Value\":\"萬華中華服務中心\"}]}",
      "Phone": "0981057222",
      "AvailableTime": "AP//wAAAAP//wAAAAP//wAAAAP//wAAAAP//wAAAAP//wAAAAAAAAAAA",
      "State": 1,
      "UpdateTime": "2017-03-15T02:27:10.59Z"
    },
    {
      "Id": "5e8031ad-0d60-4bd6-bc09-227e561c31e7",
      "GeoPoint": {
        "Latitude": 25.028053,
        "Longitude": 121.568207
      },
      "ZipCode": "110",
      "City": "{\"List\":[{\"Value\":\"Taipei City\",\"Lang\":\"en-US\"},{\"Value\":\"台北市\",\"Lang\":\"zh-TW\"}]}",
      "District": "{\"List\":[{\"Lang\":\"en-US\", \"Value\":\"Xinyi Dist.,\"}, {\"Lang\":\"zh-TW\", \"Value\":\"信義區\"}]}",
      "Address": "{\"List\":[{\"Lang\":\"en-US\", \"Value\":\"No. 174, Songren Road, Xinyi Dist., Taipei City\"}, {\"Lang\":\"zh-TW\", \"Value\":\"台北市信義區松仁路174號\"}]}",
      "Type": 240,
      "Name": "{\"List\":[{\"Lang\":\"en-US\", \"Value\":\"Xinyi Songren\"}, {\"Lang\":\"zh-TW\", \"Value\":\"信義松仁服務中心\"}]}",
      "Phone": "0988-112-430",
      "AvailableTime": "AP//wAAAAP//wAAAAP//wAAAAP//wAAAAP//wAAAAP//wAAAAAAAAAAA",
      "State": 1,
      "UpdateTime": "2018-08-20T06:34:36.903Z"
    },
    {
      "Id": "3b2ef6cb-a084-4390-a264-25efcb9a39b8",
      "GeoPoint": {
        "Latitude": 25.014216,
        "Longitude": 121.422551
      },
      "ZipCode": "238",
      "City": "{\"List\":[{\"Value\":\"New Taipei City\",\"Lang\":\"en-US\"},{\"Value\":\"新北市\",\"Lang\":\"zh-TW\"}]}",
      "District": "{\"List\":[{\"Lang\":\"en-US\", \"Value\":\"Shulin Dist.,\"}, {\"Lang\":\"zh-TW\", \"Value\":\"樹林區\"}]}",
      "Address": "{\"List\":[{\"Lang\":\"en-US\", \"Value\":\"No. 288, Sanjun Street, Shulin Dist., New Taipei City\"}, {\"Lang\":\"zh-TW\", \"Value\":\"新北市樹林區三俊街288號\"}]}",
      "Type": 240,
      "Name": "{\"List\":[{\"Lang\":\"en-US\", \"Value\":\"Shulin Sanjun service center\"}, {\"Lang\":\"zh-TW\", \"Value\":\"樹林三俊服務中心\"}]}",
      "Phone": "02-2676-5689",
      "AvailableTime": "A///wAAAA///wAAAA///wAAAA///wAAAA///wAAAA///wAAAAP/wAAAA",
      "State": 1,
      "UpdateTime": "2018-08-20T02:34:39.457Z"
    },
    {
      "Id": "9bfc8342-0baf-46d1-a7f7-27d0b12fa1c7",
      "GeoPoint": {
        "Latitude": 24.98153,
        "Longitude": 121.560216
      },
      "ZipCode": "116",
      "City": "{\"List\":[{\"Value\":\"Taipei City\",\"Lang\":\"en-US\"},{\"Value\":\"台北市\",\"Lang\":\"zh-TW\"}]}",
      "District": "{\"List\":[{\"Lang\":\"en-US\", \"Value\":\"Wunshan Dist.,\"}, {\"Lang\":\"zh-TW\", \"Value\":\"台北市\"}]}",
      "Address": "{\"List\":[{\"Lang\":\"en-US\", \"Value\":\"No.187, Sec. 3, Musin Rd., Wunshan Dist., Taipei City\"}, {\"Lang\":\"zh-TW\", \"Value\":\"台北市文山區木新路三段187號\"}]}",
      "Type": 48,
      "Name": "{\"List\":[{\"Lang\":\"en-US\", \"Value\":\"Wenshan Muxin\"}, {\"Lang\":\"zh-TW\", \"Value\":\"文山木新服務中心\"}]}",
      "Phone": "02-8661-6066",
      "AvailableTime": "AP//wAAAAP//wAAAAP//wAAAAP//wAAAAP//wAAAAP//wAAAAP//wAAA",
      "State": 1,
      "UpdateTime": "2018-08-17T23:34:39.01Z"
    },
    {
      "Id": "a2e13eac-3dbe-4c09-9781-28e312fe5892",
      "GeoPoint": {
        "Latitude": 25.087791,
        "Longitude": 121.470737
      },
      "ZipCode": "247",
      "City": "{\"List\":[{\"Value\":\"New Taipei City\",\"Lang\":\"en-US\"},{\"Value\":\"新北市\",\"Lang\":\"zh-TW\"}]}",
      "District": "{\"List\":[{\"Lang\":\"en-US\", \"Value\":\"Luzhou Dist.,\"}, {\"Lang\":\"zh-TW\", \"Value\":\"蘆洲區\"}]}",
      "Address": "{\"List\":[{\"Lang\":\"en-US\", \"Value\":\"No. 138, Sanmin Road, Luzhou Dist., New Taipei City\"}, {\"Lang\":\"zh-TW\", \"Value\":\"新北市蘆洲區三民路138號\"}]}",
      "Type": 240,
      "Name": "{\"List\":[{\"Lang\":\"en-US\", \"Value\":\"LuZhou\"}, {\"Lang\":\"zh-TW\", \"Value\":\"蘆洲三民服務中心\"}]}",
      "Phone": "0981-079-000",
      "AvailableTime": "AP//wAAAAP//wAAAAP//wAAAAP//wAAAAP//wAAAAP//wAAAAAAAAAAA",
      "State": 1,
      "UpdateTime": "2018-08-20T06:34:37.05Z"
    },
    {
      "Id": "f12295e8-7692-40c4-b33f-2c5755df1975",
      "GeoPoint": {
        "Latitude": 24.1042679,
        "Longitude": 120.6803791
      },
      "ZipCode": "412",
      "City": "{\"List\":[{\"Value\":\"Taichung City\",\"Lang\":\"en-US\"},{\"Value\":\"台中市\",\"Lang\":\"zh-TW\"}]}",
      "District": "{\"List\":[{\"Lang\":\"en-US\", \"Value\":\"Dali Dist.\"}, {\"Lang\":\"zh-TW\", \"Value\":\"大里區\"}]}",
      "Address": "{\"List\":[{\"Lang\":\"en-US\", \"Value\":\"No.459, Defang S. Rd., Dali Dist., Taichung City 412\"}, {\"Lang\":\"zh-TW\", \"Value\":\"台中市大里區德芳南路459號\"}]}",
      "Type": 56,
      "Name": "{\"List\":[{\"Lang\":\"en-US\", \"Value\":\"Dali Derfang Service Center\"}, {\"Lang\":\"zh-TW\", \"Value\":\"大里德芳服務中心\"}]}",
      "Phone": "0981686199",
      "AvailableTime": "A///wAAAA///wAAAA///wAAAA///wAAAA///wAAAA///wAAAAAAAAAAA",
      "State": 1,
      "UpdateTime": "2017-07-12T05:51:40.867Z"
    },
    {
      "Id": "9669dcbb-f1d7-4138-84e1-2f5d8345c742",
      "GeoPoint": {
        "Latitude": 22.6797346,
        "Longitude": 120.3472733
      },
      "ZipCode": "814",
      "City": "{\"List\":[{\"Value\":\"Kaohsiung City\",\"Lang\":\"en-US\"},{\"Value\":\"高雄市\",\"Lang\":\"zh-TW\"}]}",
      "District": "{\"List\":[{\"Lang\":\"en-US\", \"Value\":\"Renwu Dist.,\"}, {\"Lang\":\"zh-TW\", \"Value\":\"高雄市\"}]}",
      "Address": "{\"List\":[{\"Lang\":\"en-US\", \"Value\":\"No.37, Renxiong Rd., Renwu Dist., Kaohsiung City\"}, {\"Lang\":\"zh-TW\", \"Value\":\"高雄市仁武區仁雄路37之2號\"}]}",
      "Type": 48,
      "Name": "{\"List\":[{\"Lang\":\"en-US\", \"Value\":\"Renxiong Renwu\"}, {\"Lang\":\"zh-TW\", \"Value\":\"仁武仁雄服務中心\"}]}",
      "Phone": "07-3743985",
      "AvailableTime": "AP//wAAAAP//wAAAAP//wAAAAP//wAAAAP//wAAAAP//wAAAAAAAAAAA",
      "State": 1,
      "UpdateTime": "2018-08-13T08:34:36.04Z"
    },
    {
      "Id": "ffc8602d-c31f-4318-b15a-32ab1ab9cd11",
      "GeoPoint": {
        "Latitude": 22.566995,
        "Longitude": 120.356397
      },
      "ZipCode": "812",
      "City": "{\"List\":[{\"Value\":\"Kaohsiung City\",\"Lang\":\"en-US\"},{\"Value\":\"高雄市\",\"Lang\":\"zh-TW\"}]}",
      "District": "{\"List\":[{\"Lang\":\"en-US\", \"Value\":\"Xiaogang Dist.,\"}, {\"Lang\":\"zh-TW\", \"Value\":\"高雄市\"}]}",
      "Address": "{\"List\":[{\"Lang\":\"en-US\", \"Value\":\"No.369.371, Hanwen Rd., Xiaogang Dist., Kaohsiung City\"}, {\"Lang\":\"zh-TW\", \"Value\":\"高雄市小港區漢民路369.371號\"}]}",
      "Type": 48,
      "Name": "{\"List\":[{\"Lang\":\"en-US\", \"Value\":\"Xiaogang  Hanwen\"}, {\"Lang\":\"zh-TW\", \"Value\":\"小港漢民服務中心\"}]}",
      "Phone": "07-8061678",
      "AvailableTime": "AP//wAAAAP//wAAAAP//wAAAAP//wAAAAP//wAAAAP//wAAAAAAAAAAA",
      "State": 1,
      "UpdateTime": "2018-08-16T03:34:33.77Z"
    },
    {
      "Id": "c0c62d02-0f0e-4389-a39e-35f7ebccdbf2",
      "GeoPoint": {
        "Latitude": 25.0438099,
        "Longitude": 121.5039293
      },
      "ZipCode": "108",
      "City": "{\"List\":[{\"Value\":\"Taipei City\",\"Lang\":\"en-US\"},{\"Value\":\"台北市\",\"Lang\":\"zh-TW\"}]}",
      "District": "{\"List\":[{\"Lang\":\"en-US\", \"Value\":\"Wanhua Dist.\"}, {\"Lang\":\"zh-TW\", \"Value\":\"萬華區\"}]}",
      "Address": "{\"List\":[{\"Lang\":\"en-US\", \"Value\":\"No.62, Xining S. Rd., Wanhua Dist., Taipei City 108\"}, {\"Lang\":\"zh-TW\", \"Value\":\"臺北市萬華區西寧南路62號\"}]}",
      "Type": 48,
      "Name": "{\"List\":[{\"Lang\":\"en-US\", \"Value\":\"Ximen Xining Store\"}, {\"Lang\":\"zh-TW\", \"Value\":\"西門西寧服務中心\"}]}",
      "Phone": "02-23317070",
      "AvailableTime": "AP//8AAAAP//8AAAAP//8AAAAP//8AAAAP//8AAAAP//8AAAAAAAAAAA",
      "State": 2,
      "UpdateTime": "2017-03-15T02:27:10.59Z"
    },
    {
      "Id": "f527b009-8256-420f-b16c-3940c5c9661e",
      "GeoPoint": {
        "Latitude": 24.9493347,
        "Longitude": 121.2975593
      },
      "ZipCode": "334",
      "City": "{\"List\":[{\"Value\":\"Taoyuan City\",\"Lang\":\"en-US\"},{\"Value\":\"桃園市\",\"Lang\":\"zh-TW\"}]}",
      "District": "{\"List\":[{\"Lang\":\"en-US\", \"Value\":\"Bade Dist.,\"}, {\"Lang\":\"zh-TW\", \"Value\":\"八德區\"}]}",
      "Address": "{\"List\":[{\"Lang\":\"en-US\", \"Value\":\"No.312, Sec. 2, Jieshou Rd., Bade Dist., Taoyuan City 334\"}, {\"Lang\":\"zh-TW\", \"Value\":\"桃園市八德區介壽路二段312號\"}]}",
      "Type": 240,
      "Name": "{\"List\":[{\"Lang\":\"en-US\", \"Value\":\"Taoyuan Bade\"}, {\"Lang\":\"zh-TW\", \"Value\":\"桃園八德服務中心\"}]}",
      "Phone": "0981158668",
      "AvailableTime": "A///wAAAA///wAAAA///wAAAA///wAAAA///wAAAA///wAAAAAAAAAAA",
      "State": 1,
      "UpdateTime": "2018-08-17T23:34:39.093Z"
    },
    {
      "Id": "c93e148c-5804-4d02-aaef-396df2c1ea8d",
      "GeoPoint": {
        "Latitude": 22.651917,
        "Longitude": 120.328224
      },
      "ZipCode": "807",
      "City": "{\"List\":[{\"Value\":\"Kaohsiung City\",\"Lang\":\"en-US\"},{\"Value\":\"高雄市\",\"Lang\":\"zh-TW\"}]}",
      "District": "{\"List\":[{\"Lang\":\"en-US\", \"Value\":\"Sanmin Dist.,\"}, {\"Lang\":\"zh-TW\", \"Value\":\"高雄市\"}]}",
      "Address": "{\"List\":[{\"Lang\":\"en-US\", \"Value\":\"No.422, Jiangong Rd., Sanmin Dist., Kaohsiung City\"}, {\"Lang\":\"zh-TW\", \"Value\":\"高雄市三民區建工路422號\"}]}",
      "Type": 206,
      "Name": "{\"List\":[{\"Lang\":\"en-US\", \"Value\":\"Sanmin iangong\"}, {\"Lang\":\"zh-TW\", \"Value\":\"三民建工經銷門市\"}]}",
      "Phone": "07-3811336",
      "AvailableTime": "AP//wAAAAP//wAAAAP//wAAAAP//wAAAAP//wAAAAP//wAAAAP//wAAA",
      "State": 1,
      "UpdateTime": "2018-08-16T04:34:34Z"
    },
    {
      "Id": "d555fa59-2d7b-4d3a-919d-3acb33dfaa37",
      "GeoPoint": {
        "Latitude": 24.9851222,
        "Longitude": 121.5385654
      },
      "ZipCode": "231",
      "City": "{\"List\":[{\"Value\":\"New Taipei City\",\"Lang\":\"en-US\"},{\"Value\":\"新北市\",\"Lang\":\"zh-TW\"}]}",
      "District": "{\"List\":[{\"Lang\":\"en-US\", \"Value\":\"Xindian Dist.\"}, {\"Lang\":\"zh-TW\", \"Value\":\"新店區\"}]}",
      "Address": "{\"List\":[{\"Lang\":\"en-US\", \"Value\":\"No.227, Sec. 3, Beixin Rd., Xindian Dist., New Taipei City\"}, {\"Lang\":\"zh-TW\", \"Value\":\"新北市新店區北新路三段227號\"}]}",
      "Type": 56,
      "Name": "{\"List\":[{\"Lang\":\"en-US\", \"Value\":\"Xindian Beixin Service Center\"}, {\"Lang\":\"zh-TW\", \"Value\":\"新店北新服務中心\"}]}",
      "Phone": "0981686122",
      "AvailableTime": "A///wAAAA///wAAAA///wAAAA///wAAAA///wAAAA///wAAAAAAAAAAA",
      "State": 1,
      "UpdateTime": "2017-07-12T05:51:40.867Z"
    },
    {
      "Id": "0dcdf58b-eae4-4924-9215-3b7a94c6bcaa",
      "GeoPoint": {
        "Latitude": 24.185381,
        "Longitude": 120.621351
      },
      "ZipCode": "407",
      "City": "{\"List\":[{\"Value\":\"Taichung City\",\"Lang\":\"en-US\"},{\"Value\":\"台中市\",\"Lang\":\"zh-TW\"}]}",
      "District": "{\"List\":[{\"Lang\":\"en-US\", \"Value\":\"Xitun Dist.,\"}, {\"Lang\":\"zh-TW\", \"Value\":\"西屯區\"}]}",
      "Address": "{\"List\":[{\"Lang\":\"en-US\", \"Value\":\"No.172, Yongfu Rd., Xitun Dist., Taichung City 407\"}, {\"Lang\":\"zh-TW\", \"Value\":\"台中市西屯區永福路172號\"}]}",
      "Type": 206,
      "Name": "{\"List\":[{\"Lang\":\"en-US\", \"Value\":\"Taichung Yongfu\"}, {\"Lang\":\"zh-TW\", \"Value\":\"台中永福店\"}]}",
      "Phone": "0981138222",
      "AvailableTime": "A///wAAAA///wAAAA///wAAAA///wAAAA///wAAAA///wAAAA///wAAA",
      "State": 1,
      "UpdateTime": "2017-03-15T02:27:10.59Z"
    },
    {
      "Id": "eec15a09-25d7-4165-bd4c-3d025fd4b1c7",
      "GeoPoint": {
        "Latitude": 22.724758,
        "Longitude": 120.296868
      },
      "ZipCode": "811",
      "City": "{\"List\":[{\"Value\":\"Kaohsiung City\",\"Lang\":\"en-US\"},{\"Value\":\"高雄市\",\"Lang\":\"zh-TW\"}]}",
      "District": "{\"List\":[{\"Lang\":\"en-US\", \"Value\":\"Nanzi Dist.,\"}, {\"Lang\":\"zh-TW\", \"Value\":\"高雄市\"}]}",
      "Address": "{\"List\":[{\"Lang\":\"en-US\", \"Value\":\"No.65, Yiqun Rd., Nanzi Dist., Kaohsiung City\"}, {\"Lang\":\"zh-TW\", \"Value\":\"高雄市楠梓區益群路65號\"}]}",
      "Type": 206,
      "Name": "{\"List\":[{\"Lang\":\"en-US\", \"Value\":\"Nanzi  Yicyun\"}, {\"Lang\":\"zh-TW\", \"Value\":\"楠梓益群門市\"}]}",
      "Phone": "07-3601789",
      "AvailableTime": "AP//wAAAAP//wAAAAP//wAAAAP//wAAAAP//wAAAAP//wAAAAP//wAAA",
      "State": 1,
      "UpdateTime": "2018-08-15T22:34:35.95Z"
    },
    {
      "Id": "970f2b74-7ece-47a5-8f17-3de20122ed00",
      "GeoPoint": {
        "Latitude": 25.046222,
        "Longitude": 121.292588
      },
      "ZipCode": "338",
      "City": "{\"List\":[{\"Value\":\"Taoyuan City\",\"Lang\":\"en-US\"},{\"Value\":\"桃園市\",\"Lang\":\"zh-TW\"}]}",
      "District": "{\"List\":[{\"Lang\":\"en-US\", \"Value\":\"Luzhu Dist.,\"}, {\"Lang\":\"zh-TW\", \"Value\":\"蘆竹區\"}]}",
      "Address": "{\"List\":[{\"Lang\":\"en-US\", \"Value\":\"No 217, Zhongzheng Rd., Luzhu Dist., Taoyuan City\"}, {\"Lang\":\"zh-TW\", \"Value\":\"桃園市蘆竹區中正路217號\"}]}",
      "Type": 48,
      "Name": "{\"List\":[{\"Lang\":\"en-US\", \"Value\":\"Nankan Zhongzheng\"}, {\"Lang\":\"zh-TW\", \"Value\":\"南崁中正服務中心\"}]}",
      "Phone": "0981-288311",
      "AvailableTime": "AP//wAAAAP//wAAAAP//wAAAAP//wAAAAP//wAAAAP//wAAAAAAAAAAA",
      "State": 1,
      "UpdateTime": "2018-08-16T05:34:33.163Z"
    },
    {
      "Id": "c1570745-17ae-41ea-8450-42bffb4a4b9e",
      "GeoPoint": {
        "Latitude": 24.171483,
        "Longitude": 120.694946
      },
      "ZipCode": "406",
      "City": "{\"List\":[{\"Value\":\"Taichung City\",\"Lang\":\"en-US\"},{\"Value\":\"台中市\",\"Lang\":\"zh-TW\"}]}",
      "District": "{\"List\":[{\"Lang\":\"en-US\", \"Value\":\"Beitun Dist., \"}, {\"Lang\":\"zh-TW\", \"Value\":\"北屯區\"}]}",
      "Address": "{\"List\":[{\"Lang\":\"en-US\", \"Value\":\"No. 951, Section 4, Wenxin Road, Beitun Dist., Taichung City\"}, {\"Lang\":\"zh-TW\", \"Value\":\"台中市北屯區文心路四段951號\"}]}",
      "Type": 240,
      "Name": "{\"List\":[{\"Lang\":\"en-US\", \"Value\":\"Beitun Wenxin service center\"}, {\"Lang\":\"zh-TW\", \"Value\":\"北屯文心服務中心\"}]}",
      "Phone": "04-2247-0537 ",
      "AvailableTime": "AP//wAAAAP//wAAAAP//wAAAAP//wAAAAP//wAAAAP//wAAAAAAAAAAA",
      "State": 1,
      "UpdateTime": "2018-08-20T02:34:39.78Z"
    },
    {
      "Id": "63a8a39c-d7de-4bc8-b459-42eb9ae94326",
      "GeoPoint": {
        "Latitude": 25.002994,
        "Longitude": 121.481198
      },
      "ZipCode": "235",
      "City": "{\"List\":[{\"Value\":\"New Taipei City\",\"Lang\":\"en-US\"},{\"Value\":\"新北市\",\"Lang\":\"zh-TW\"}]}",
      "District": "{\"List\":[{\"Lang\":\"en-US\", \"Value\":\"Zhonghe Dist.,\"}, {\"Lang\":\"zh-TW\", \"Value\":\"新北市\"}]}",
      "Address": "{\"List\":[{\"Lang\":\"en-US\", \"Value\":\"No.316, Yuanshan Rd., Zhonghe Dist., New Taipei City\"}, {\"Lang\":\"zh-TW\", \"Value\":\"新北市中和區員山路316號\"}]}",
      "Type": 48,
      "Name": "{\"List\":[{\"Lang\":\"en-US\", \"Value\":\"Zhonghe Yuanshan\"}, {\"Lang\":\"zh-TW\", \"Value\":\"中和員山服務中心\"}]}",
      "Phone": "02-2228-6576",
      "AvailableTime": "AP//wAAAAP//wAAAAP//wAAAAP//wAAAAP//wAAAAP//wAAAAP//wAAA",
      "State": 1,
      "UpdateTime": "2018-08-17T23:34:39.177Z"
    },
    {
      "Id": "242a55ae-444c-4765-9868-435adc7f0070",
      "GeoPoint": {
        "Latitude": 25.1299882,
        "Longitude": 121.73975
      },
      "ZipCode": "200",
      "City": "{\"List\":[{\"Value\":\"Keelung City\",\"Lang\":\"en-US\"},{\"Value\":\"基隆市\",\"Lang\":\"zh-TW\"}]}",
      "District": "{\"List\":[{\"Lang\":\"en-US\", \"Value\":\"Ren’ai Dist.,\"}, {\"Lang\":\"zh-TW\", \"Value\":\"仁愛區\"}]}",
      "Address": "{\"List\":[{\"Lang\":\"en-US\", \"Value\":\"No.17, Zhong 2nd Rd., Ren’ai Dist., Keelung City 200\"}, {\"Lang\":\"zh-TW\", \"Value\":\"基隆市仁愛區忠二路17號\"}]}",
      "Type": 254,
      "Name": "{\"List\":[{\"Lang\":\"en-US\", \"Value\":\"KeeLung Service Center\"}, {\"Lang\":\"zh-TW\", \"Value\":\"基隆忠二服務中心\"}]}",
      "Phone": "0981686100",
      "AvailableTime": "AP//wAAAAP//wAAAAP//wAAAAP//wAAAAP//wAAAAP//wAAAAAAAAAAA",
      "State": 1,
      "UpdateTime": "2017-07-12T05:51:40.867Z"
    },
    {
      "Id": "77072129-3b81-4c79-ad1f-44d9172869b1",
      "GeoPoint": {
        "Latitude": 22.971419,
        "Longitude": 120.227319
      },
      "ZipCode": "701",
      "City": "{\"List\":[{\"Value\":\"Tainan City\",\"Lang\":\"en-US\"},{\"Value\":\"台南市\",\"Lang\":\"zh-TW\"}]}",
      "District": "{\"List\":[{\"Lang\":\"en-US\", \"Value\":\"East Dist.,\"}, {\"Lang\":\"zh-TW\", \"Value\":\"台南市\"}]}",
      "Address": "{\"List\":[{\"Lang\":\"en-US\", \"Value\":\"No.592, Chongde Rd., East Dist., Tainan City\"}, {\"Lang\":\"zh-TW\", \"Value\":\"台南市東區崇德路592號\"}]}",
      "Type": 206,
      "Name": "{\"List\":[{\"Lang\":\"en-US\", \"Value\":\"East Chongde\"}, {\"Lang\":\"zh-TW\", \"Value\":\"東區崇德門市\"}]}",
      "Phone": "06-2676233",
      "AvailableTime": "AP//wAAAAP//wAAAAP//wAAAAP//wAAAAP//wAAAAP//wAAAAP//wAAA",
      "State": 1,
      "UpdateTime": "2018-08-16T03:34:33.85Z"
    },
    {
      "Id": "8a2170c8-e6f2-496d-96c3-460134df71eb",
      "GeoPoint": {
        "Latitude": 25.039599,
        "Longitude": 121.461918
      },
      "ZipCode": "242",
      "City": "{\"List\":[{\"Value\":\"New Taipei City\",\"Lang\":\"en-US\"},{\"Value\":\"新北市\",\"Lang\":\"zh-TW\"}]}",
      "District": "{\"List\":[{\"Lang\":\"en-US\", \"Value\":\"Sinjhuang Dist.,\"}, {\"Lang\":\"zh-TW\", \"Value\":\"新莊區\"}]}",
      "Address": "{\"List\":[{\"Lang\":\"en-US\", \"Value\":\"No.57, Jhongjheng Rd., Sinjhuang Dist., New Taipei City 242\"}, {\"Lang\":\"zh-TW\", \"Value\":\"新北市新莊區中正路57號\"}]}",
      "Type": 254,
      "Name": "{\"List\":[{\"Lang\":\"en-US\", \"Value\":\"Xinzhuang Service Center\"}, {\"Lang\":\"zh-TW\", \"Value\":\"新莊中正服務中心\"}]}",
      "Phone": "0981686133",
      "AvailableTime": "A///wAAAA///wAAAA///wAAAA///wAAAA///wAAAA///wAAAAAAAAAAA",
      "State": 1,
      "UpdateTime": "2017-07-12T05:51:40.867Z"
    },
    {
      "Id": "cc5eb151-282f-4fc3-a26b-47d10a8f02df",
      "GeoPoint": {
        "Latitude": 22.999902,
        "Longitude": 120.228622
      },
      "ZipCode": "704",
      "City": "{\"List\":[{\"Value\":\"Tainan City\",\"Lang\":\"en-US\"},{\"Value\":\"台南市\",\"Lang\":\"zh-TW\"}]}",
      "District": "{\"List\":[{\"Lang\":\"en-US\", \"Value\":\"North Dist.,\"}, {\"Lang\":\"zh-TW\", \"Value\":\"北區\"}]}",
      "Address": "{\"List\":[{\"Lang\":\"en-US\", \"Value\":\"No.261, Xiaodong Rd., North Dist., Tainan City\"}, {\"Lang\":\"zh-TW\", \"Value\":\"台南市北區小東路261號\"}]}",
      "Type": 240,
      "Name": "{\"List\":[{\"Lang\":\"en-US\", \"Value\":\"Beiqu xiaodong service center\"}, {\"Lang\":\"zh-TW\", \"Value\":\"北區小東服務中心\"}]}",
      "Phone": "06-2368959",
      "AvailableTime": "AP//wAAAAP//wAAAAP//wAAAAP//wAAAAP//wAAAAP//wAAAAAAAAAAA",
      "State": 1,
      "UpdateTime": "2018-08-16T04:34:33.957Z"
    },
    {
      "Id": "9fb040f9-919f-4b83-be0c-48931524c065",
      "GeoPoint": {
        "Latitude": 25.007936,
        "Longitude": 121.49109
      },
      "ZipCode": "235",
      "City": "{\"List\":[{\"Value\":\"New Taipei City\",\"Lang\":\"en-US\"},{\"Value\":\"新北市\",\"Lang\":\"zh-TW\"}]}",
      "District": "{\"List\":[{\"Lang\":\"en-US\", \"Value\":\"Zhonghe Dist.,\"}, {\"Lang\":\"zh-TW\", \"Value\":\"中和區\"}]}",
      "Address": "{\"List\":[{\"Lang\":\"en-US\", \"Value\":\"No. 6, Zhongyuan Street, Zhonghe Dist.,New Taipei City 235\"}, {\"Lang\":\"zh-TW\", \"Value\":\"新北市中和區中原街6號\"}]}",
      "Type": 240,
      "Name": "{\"List\":[{\"Lang\":\"en-US\", \"Value\":\"Chunghe Chungyuan\"}, {\"Lang\":\"zh-TW\", \"Value\":\"中和中原服務中心\"}]}",
      "Phone": "02-2244-2996",
      "AvailableTime": "AP//wAAAAP//wAAAAP//wAAAAP//wAAAAP//wAAAAP//wAAAAAAAAAAA",
      "State": 1,
      "UpdateTime": "2018-08-20T07:34:36.183Z"
    },
    {
      "Id": "f6df54a8-d555-4aa3-9f90-4b3f9eaf0555",
      "GeoPoint": {
        "Latitude": 24.174536,
        "Longitude": 120.644252
      },
      "ZipCode": "407",
      "City": "{\"List\":[{\"Value\":\"Taichung City\",\"Lang\":\"en-US\"},{\"Value\":\"台中市\",\"Lang\":\"zh-TW\"}]}",
      "District": "{\"List\":[{\"Lang\":\"en-US\", \"Value\":\"Xitun Dist.,\"}, {\"Lang\":\"zh-TW\", \"Value\":\"西屯區\"}]}",
      "Address": "{\"List\":[{\"Lang\":\"en-US\", \"Value\":\"No. 269-48, Section 2, Xitun Road, Xitun Dist., Taichung City 407\"}, {\"Lang\":\"zh-TW\", \"Value\":\"台中市西屯區西屯路2段269之48號\"}]}",
      "Type": 240,
      "Name": "{\"List\":[{\"Lang\":\"en-US\", \"Value\":\"Xitun Fengjia service center\"}, {\"Lang\":\"zh-TW\", \"Value\":\"西屯逢甲服務中心\"}]}",
      "Phone": "04-2452-2986",
      "AvailableTime": "A///wAAAA///wAAAA///wAAAA///wAAAA///wAAAA///wAAAAAAAAAAA",
      "State": 1,
      "UpdateTime": "2018-08-20T06:34:37.197Z"
    },
    {
      "Id": "6e335384-c093-43e4-96b4-4c9851990bc9",
      "GeoPoint": {
        "Latitude": 23.4693,
        "Longitude": 120.454721
      },
      "ZipCode": "600",
      "City": "{\"List\":[{\"Value\":\"Chiayi City\",\"Lang\":\"en-US\"},{\"Value\":\"嘉義市\",\"Lang\":\"zh-TW\"}]}\t",
      "District": "{\"List\":[{\"Lang\":\"en-US\", \"Value\":\"East Dist.,\"}, {\"Lang\":\"zh-TW\", \"Value\":\"東區\"}]}",
      "Address": "{\"List\":[{\"Lang\":\"en-US\", \"Value\":\"No. 18, Xingye East Road, East Dist., Chiayi City\"}, {\"Lang\":\"zh-TW\", \"Value\":\"嘉義市東區興業東路18號\"}]}",
      "Type": 206,
      "Name": "{\"List\":[{\"Lang\":\"en-US\", \"Value\":\"Jiayi Xingyedong\"}, {\"Lang\":\"zh-TW\", \"Value\":\"嘉義興業東門市\"}]}",
      "Phone": "05-216-8222",
      "AvailableTime": "AP//wAAAAP//wAAAAP//wAAAAP//wAAAAP//wAAAAP//wAAAAP//wAAA",
      "State": 1,
      "UpdateTime": "2018-08-20T06:34:36.953Z"
    },
    {
      "Id": "958f8e59-5f9a-4ab4-92ac-4dcfa54c9de4",
      "GeoPoint": {
        "Latitude": 25.0441128,
        "Longitude": 121.5312496
      },
      "ZipCode": "100",
      "City": "{\"List\":[{\"Value\":\"Taipei City\",\"Lang\":\"en-US\"},{\"Value\":\"台北市\",\"Lang\":\"zh-TW\"}]}",
      "District": "{\"List\":[{\"Lang\":\"en-US\", \"Value\":\"Zhongzheng Dist.\"}, {\"Lang\":\"zh-TW\", \"Value\":\"中正區\"}]}",
      "Address": "{\"List\":[{\"Lang\":\"en-US\", \"Value\":\"1F, No.27, Sec. 1, Bade Rd., Zhongzheng Dist., Taipei City\"}, {\"Lang\":\"zh-TW\", \"Value\":\"台北市中正區八德路一段27號一樓\"}]}",
      "Type": 206,
      "Name": "{\"List\":[{\"Lang\":\"en-US\", \"Value\":\"Guanghua Bade Store\"}, {\"Lang\":\"zh-TW\", \"Value\":\"光華八德店\"}]}",
      "Phone": "02-23957070",
      "AvailableTime": "AP//wAAAAP//wAAAAP//wAAAAP//wAAAAP//wAAAAP//wAAAAP//wAAA",
      "State": 1,
      "UpdateTime": "2017-03-15T02:27:10.59Z"
    },
    {
      "Id": "b0af34ef-3c1b-470b-8ace-4e524b833eb6",
      "GeoPoint": {
        "Latitude": 25.00718,
        "Longitude": 121.460364
      },
      "ZipCode": "220",
      "City": "{\"List\":[{\"Value\":\"New Taipei City\",\"Lang\":\"en-US\"},{\"Value\":\"新北市\",\"Lang\":\"zh-TW\"}]}",
      "District": "{\"List\":[{\"Lang\":\"en-US\", \"Value\":\"Banqiao Dist.\"}, {\"Lang\":\"zh-TW\", \"Value\":\"板橋區\"}]}",
      "Address": "{\"List\":[{\"Lang\":\"en-US\", \"Value\":\"1F., No.26, Guanqian E. Rd., Banqiao Dist., New Taipei City\"}, {\"Lang\":\"zh-TW\", \"Value\":\"新北市板橋區景星里館前東路26號 一樓\"}]}",
      "Type": 206,
      "Name": "{\"List\":[{\"Lang\":\"en-US\", \"Value\":\"Banqiao Guanqian Store\"}, {\"Lang\":\"zh-TW\", \"Value\":\"板橋館前店\"}]}",
      "Phone": "02-29641010",
      "AvailableTime": "Af//4AAAAf//4AAAAf//4AAAAf//4AAAAf//4AAAAf//4AAAAf//4AAA",
      "State": 1,
      "UpdateTime": "2017-03-15T02:27:10.59Z"
    },
    {
      "Id": "5cb5cddc-f942-472e-a898-528f38546e78",
      "GeoPoint": {
        "Latitude": 22.9944089,
        "Longitude": 120.2053424
      },
      "ZipCode": "700",
      "City": "{\"List\":[{\"Value\":\"Tainan City\",\"Lang\":\"en-US\"},{\"Value\":\"台南市\",\"Lang\":\"zh-TW\"}]}",
      "District": "{\"List\":[{\"Lang\":\"en-US\", \"Value\":\"West Central Dist.\"}, {\"Lang\":\"zh-TW\", \"Value\":\"中西區\"}]}",
      "Address": "{\"List\":[{\"Lang\":\"en-US\", \"Value\":\"1F., No.36, Gongyuan Rd., West Central Dist., Tainan City 700\"}, {\"Lang\":\"zh-TW\", \"Value\":\"台南市中西區三民里公園路36號1樓\"}]}",
      "Type": 206,
      "Name": "{\"List\":[{\"Lang\":\"en-US\", \"Value\":\"Tainan Gongyuan\"}, {\"Lang\":\"zh-TW\", \"Value\":\"台南公園門市\"}]}",
      "Phone": "0981-115000",
      "AvailableTime": "AP//wAAAAP//wAAAAP//wAAAAP//wAAAAP//wAAAAP//wAAAAP//wAAA",
      "State": 1,
      "UpdateTime": "2018-08-15T22:34:35.76Z"
    },
    {
      "Id": "09bd146a-ed53-4cf1-9cba-56c91ddf84de",
      "GeoPoint": {
        "Latitude": 22.6696,
        "Longitude": 120.303737
      },
      "ZipCode": "813",
      "City": "{\"List\":[{\"Value\":\"Kaohsiung City\",\"Lang\":\"en-US\"},{\"Value\":\"高雄市\",\"Lang\":\"zh-TW\"}]}",
      "District": "{\"List\":[{\"Lang\":\"en-US\", \"Value\":\"Zuoying Dist.,\"}, {\"Lang\":\"zh-TW\", \"Value\":\"左營區\"}]}",
      "Address": "{\"List\":[{\"Lang\":\"en-US\", \"Value\":\"No.664, Bo’ai 2nd Rd., Zuoying Dist., Kaohsiung City 813\"}, {\"Lang\":\"zh-TW\", \"Value\":\"高雄市左營區博愛二路664號\"}]}",
      "Type": 206,
      "Name": "{\"List\":[{\"Lang\":\"en-US\", \"Value\":\"Zuoying Boai\"}, {\"Lang\":\"zh-TW\", \"Value\":\"左營博愛門市\"}]}",
      "Phone": "0981-166-000",
      "AvailableTime": "AP//wAAAAP//wAAAAP//wAAAAP//wAAAAP//wAAAAP//wAAAAP//wAAA",
      "State": 1,
      "UpdateTime": "2018-08-20T07:34:35.983Z"
    },
    {
      "Id": "85276fda-fb45-4a47-92a9-57a11f462931",
      "GeoPoint": {
        "Latitude": 25.066591,
        "Longitude": 121.655076
      },
      "ZipCode": "221",
      "City": "{\"List\":[{\"Value\":\"New Taipei City\",\"Lang\":\"en-US\"},{\"Value\":\"新北市\",\"Lang\":\"zh-TW\"}]}",
      "District": "{\"List\":[{\"Lang\":\"en-US\", \"Value\":\"Xizhi Dist.,\"}, {\"Lang\":\"zh-TW\", \"Value\":\"汐止區\"}]}",
      "Address": "{\"List\":[{\"Lang\":\"en-US\", \"Value\":\"No. 290, Section 2, Datong Road, Xizhi Dist., New Taipei City\"}, {\"Lang\":\"zh-TW\", \"Value\":\"新北市汐止區大同路二段 290 號\"}]}",
      "Type": 240,
      "Name": "{\"List\":[{\"Lang\":\"en-US\", \"Value\":\"Xizhi Datong service center\"}, {\"Lang\":\"zh-TW\", \"Value\":\"汐止大同服務中心\"}]}",
      "Phone": "02-2641-0009",
      "AvailableTime": "AP//wAAAAP//wAAAAP//wAAAAP//wAAAAP//wAAAAP//wAAAAAAAAAAA",
      "State": 1,
      "UpdateTime": "2018-08-19T00:34:37.103Z"
    },
    {
      "Id": "e1848cd0-15e8-434a-85e8-5b7f789b3a5b",
      "GeoPoint": {
        "Latitude": 22.549765,
        "Longitude": 120.537443
      },
      "ZipCode": "920",
      "City": "{\"List\":[{\"Value\":\"Pingtung County\",\"Lang\":\"en-US\"},{\"Value\":\"屏東縣\",\"Lang\":\"zh-TW\"}]}",
      "District": "{\"List\":[{\"Lang\":\"en-US\", \"Value\":\"Chaozhou Township,\"}, {\"Lang\":\"zh-TW\", \"Value\":\"屏東縣\"}]}",
      "Address": "{\"List\":[{\"Lang\":\"en-US\", \"Value\":\"No.177, Zhongshan Rd., Chaozhou Township, Pingtung County\"}, {\"Lang\":\"zh-TW\", \"Value\":\"屏東縣潮州鎮中山路177號\"}]}",
      "Type": 206,
      "Name": "{\"List\":[{\"Lang\":\"en-US\", \"Value\":\"Pingtung Chaozhou\"}, {\"Lang\":\"zh-TW\", \"Value\":\"屏東潮州門市\"}]}",
      "Phone": "08-7899858",
      "AvailableTime": "AP//wAAAAP//wAAAAP//wAAAAP//wAAAAP//wAAAAP//wAAAAP//wAAA",
      "State": 1,
      "UpdateTime": "2018-09-08T09:45:29.58Z"
    },
    {
      "Id": "32acaef3-60a6-4052-bedf-5c73eb9a8dc9",
      "GeoPoint": {
        "Latitude": 24.9979853,
        "Longitude": 121.5162996
      },
      "ZipCode": "234",
      "City": "{\"List\":[{\"Value\":\"New Taipei City\",\"Lang\":\"en-US\"},{\"Value\":\"新北市\",\"Lang\":\"zh-TW\"}]}",
      "District": "{\"List\":[{\"Lang\":\"en-US\", \"Value\":\"Yonghe Dist.\"}, {\"Lang\":\"zh-TW\", \"Value\":\"永和區\"}]}",
      "Address": "{\"List\":[{\"Lang\":\"en-US\", \"Value\":\"No.236, Zhongzheng Rd., Yonghe Dist., New Taipei City\"}, {\"Lang\":\"zh-TW\", \"Value\":\"新北市永和區中正路236、238號\"}]}",
      "Type": 48,
      "Name": "{\"List\":[{\"Lang\":\"en-US\", \"Value\":\"Yonghe Zhongzheng Store\"}, {\"Lang\":\"zh-TW\", \"Value\":\"永和中正服務中心\"}]}",
      "Phone": "02-29407878",
      "AvailableTime": "AP//wAAAAP//wAAAAP//wAAAAP//wAAAAP//wAAAAP//wAAAAAAAAAAA",
      "State": 1,
      "UpdateTime": "2017-03-15T02:27:10.59Z"
    },
    {
      "Id": "5e7024f8-4359-484e-9e91-5d27a18e82ef",
      "GeoPoint": {
        "Latitude": 25.002994,
        "Longitude": 121.481198
      },
      "ZipCode": "235",
      "City": "{\"List\":[{\"Value\":\"New Taipei City\",\"Lang\":\"en-US\"},{\"Value\":\"新北市\",\"Lang\":\"zh-TW\"}]}",
      "District": "{\"List\":[{\"Lang\":\"en-US\", \"Value\":\"Zhonghe Dist.,\"}, {\"Lang\":\"zh-TW\", \"Value\":\"新北市\"}]}",
      "Address": "{\"List\":[{\"Lang\":\"en-US\", \"Value\":\"No.316, Yuanshan Rd., Zhonghe Dist., New Taipei City\"}, {\"Lang\":\"zh-TW\", \"Value\":\"新北市中和區員山路316號\"}]}",
      "Type": 206,
      "Name": "{\"List\":[{\"Lang\":\"en-US\", \"Value\":\"Zhonghe Yuanshan\"}, {\"Lang\":\"zh-TW\", \"Value\":\"中和員山門市\"}]}",
      "Phone": "02-2228-6576",
      "AvailableTime": "AP//wAAAAP//wAAAAP//wAAAAP//wAAAAP//wAAAAP//wAAAAP//wAAA",
      "State": 1,
      "UpdateTime": "2018-08-17T23:34:39.137Z"
    },
    {
      "Id": "0cfda454-2278-40ea-83ff-5fdd9c34a972",
      "GeoPoint": {
        "Latitude": 24.9565601,
        "Longitude": 121.2250228
      },
      "ZipCode": "320",
      "City": "{\"List\":[{\"Value\":\"Taoyuan City\",\"Lang\":\"en-US\"},{\"Value\":\"桃園市\",\"Lang\":\"zh-TW\"}]}",
      "District": "{\"List\":[{\"Lang\":\"en-US\", \"Value\":\"Zhongli Dist.\"}, {\"Lang\":\"zh-TW\", \"Value\":\"中壢區\"}]}",
      "Address": "{\"List\":[{\"Lang\":\"en-US\", \"Value\":\"No.71, Fuxing Rd., Zhongli Dist., Taoyuan City 320\"}, {\"Lang\":\"zh-TW\", \"Value\":\"桃園市中壢區復興路71號\"}]}",
      "Type": 206,
      "Name": "{\"List\":[{\"Lang\":\"en-US\", \"Value\":\"Zhongli Fuxing \"}, {\"Lang\":\"zh-TW\", \"Value\":\"中壢復興店\"}]}",
      "Phone": "03-422-0822",
      "AvailableTime": "A///wAAAA///wAAAA///wAAAA///wAAAA///wAAAA///wAAAA///wAAA",
      "State": 1,
      "UpdateTime": "2017-03-15T02:27:10.59Z"
    },
    {
      "Id": "3f694f78-36e2-4e12-a0c4-6235ba8400ce",
      "GeoPoint": {
        "Latitude": 22.6797346,
        "Longitude": 120.3472733
      },
      "ZipCode": "814",
      "City": "{\"List\":[{\"Value\":\"Kaohsiung City\",\"Lang\":\"en-US\"},{\"Value\":\"高雄市\",\"Lang\":\"zh-TW\"}]}",
      "District": "{\"List\":[{\"Lang\":\"en-US\", \"Value\":\"Renwu Dist.,\"}, {\"Lang\":\"zh-TW\", \"Value\":\"高雄市\"}]}",
      "Address": "{\"List\":[{\"Lang\":\"en-US\", \"Value\":\"No.37, Renxiong Rd., Renwu Dist., Kaohsiung City\"}, {\"Lang\":\"zh-TW\", \"Value\":\"高雄市仁武區仁雄路37之2號\"}]}",
      "Type": 206,
      "Name": "{\"List\":[{\"Lang\":\"en-US\", \"Value\":\"Renxiong Renwu\"}, {\"Lang\":\"zh-TW\", \"Value\":\"仁武仁雄門市\"}]}",
      "Phone": "07-3743985",
      "AvailableTime": "AP//wAAAAP//wAAAAP//wAAAAP//wAAAAP//wAAAAP//wAAAAP//wAAA",
      "State": 1,
      "UpdateTime": "2018-08-13T08:34:36.077Z"
    },
    {
      "Id": "e6effb0b-4dac-4c17-bfc4-6437b2332ba3",
      "GeoPoint": {
        "Latitude": 24.91119,
        "Longitude": 121.174068
      },
      "ZipCode": "326",
      "City": "{\"List\":[{\"Value\":\"Taoyuan City\",\"Lang\":\"en-US\"},{\"Value\":\"桃園市\",\"Lang\":\"zh-TW\"}]}",
      "District": "{\"List\":[{\"Lang\":\"en-US\", \"Value\":\"Yangmei Dis.,\"}, {\"Lang\":\"zh-TW\", \"Value\":\"楊梅區\"}]}",
      "Address": "{\"List\":[{\"Lang\":\"en-US\", \"Value\":\"No. 294, Section 2, Zhongshan N Rd, Yangmei Dist., Taoyuan City 326\"}, {\"Lang\":\"zh-TW\", \"Value\":\"桃園市楊梅區中山北路二段294號\"}]}",
      "Type": 240,
      "Name": "{\"List\":[{\"Lang\":\"en-US\", \"Value\":\"Taoyuan Yangmei\"}, {\"Lang\":\"zh-TW\", \"Value\":\"桃園楊梅服務中心\"}]}",
      "Phone": "03-4828887",
      "AvailableTime": "A///wAAAA///wAAAA///wAAAA///wAAAA///wAAAA///wAAAAAAAAAAA",
      "State": 1,
      "UpdateTime": "2018-03-28T16:08:09.457Z"
    },
    {
      "Id": "c251a202-83ce-4e36-9535-65250e6945a8",
      "GeoPoint": {
        "Latitude": 22.78982,
        "Longitude": 120.296515
      },
      "ZipCode": "820",
      "City": "{\"List\":[{\"Value\":\"Kaohsiung City\",\"Lang\":\"en-US\"},{\"Value\":\"高雄市\",\"Lang\":\"zh-TW\"}]}",
      "District": "{\"List\":[{\"Lang\":\"en-US\", \"Value\":\"Gangshan Dist.,\"}, {\"Lang\":\"zh-TW\", \"Value\":\"高雄市\"}]}",
      "Address": "{\"List\":[{\"Lang\":\"en-US\", \"Value\":\"1F., No.164, Gangshan Rd.,Gangshan Dist., Kaohsiung City\"}, {\"Lang\":\"zh-TW\", \"Value\":\"高雄市岡山區岡山路164號1樓\"}]}",
      "Type": 48,
      "Name": "{\"List\":[{\"Lang\":\"en-US\", \"Value\":\"Kaohsiung Gangshan\"}, {\"Lang\":\"zh-TW\", \"Value\":\"高雄岡山服務中心\"}]}",
      "Phone": "0981-302255",
      "AvailableTime": "AP//wAAAAP//wAAAAP//wAAAAP//wAAAAP//wAAAAP//wAAAAAAAAAAA",
      "State": 1,
      "UpdateTime": "2018-08-15T22:34:35.893Z"
    },
    {
      "Id": "fec22375-1b03-4dc4-93f7-69789823daf2",
      "GeoPoint": {
        "Latitude": 25.03137,
        "Longitude": 121.503986
      },
      "ZipCode": "108",
      "City": "{\"List\":[{\"Value\":\"Taipei City\",\"Lang\":\"en-US\"},{\"Value\":\"台北市\",\"Lang\":\"zh-TW\"}]}",
      "District": "{\"List\":[{\"Lang\":\"en-US\", \"Value\":\"Wanhua Dist.,\"}, {\"Lang\":\"zh-TW\", \"Value\":\"萬華區\"}]}",
      "Address": "{\"List\":[{\"Lang\":\"en-US\", \"Value\":\"No.100, Sec. 2, Zhonghua Rd., Wanhua Dist., Taipei City 108\"}, {\"Lang\":\"zh-TW\", \"Value\":\"台北市萬華區中華路二段100號\"}]}",
      "Type": 206,
      "Name": "{\"List\":[{\"Lang\":\"en-US\", \"Value\":\"WanHua Zhonghua-shek\"}, {\"Lang\":\"zh-TW\", \"Value\":\"萬華中華店\"}]}",
      "Phone": "0981057222",
      "AvailableTime": "A///wAAAA///wAAAA///wAAAA///wAAAA///wAAAA///wAAAA///wAAA",
      "State": 1,
      "UpdateTime": "2017-03-15T02:27:10.59Z"
    },
    {
      "Id": "bd74e090-d36a-4c83-a846-7621932b3cd6",
      "GeoPoint": {
        "Latitude": 25.0269742,
        "Longitude": 121.5262845
      },
      "ZipCode": "106",
      "City": "{\"List\":[{\"Value\":\"Taipei City\",\"Lang\":\"en-US\"},{\"Value\":\"台北市\",\"Lang\":\"zh-TW\"}]}",
      "District": "{\"List\":[{\"Lang\":\"en-US\", \"Value\":\"Da’an Dist.\"}, {\"Lang\":\"zh-TW\", \"Value\":\"大安區\"}]}",
      "Address": "{\"List\":[{\"Lang\":\"en-US\", \"Value\":\"No.129, Sec. 1, Heping E. Rd., Da’an Dist., Taipei City 106\"}, {\"Lang\":\"zh-TW\", \"Value\":\"台北市大安區和平東路一段129號\"}]}",
      "Type": 206,
      "Name": "{\"List\":[{\"Lang\":\"en-US\", \"Value\":\"Shida Heping\"}, {\"Lang\":\"zh-TW\", \"Value\":\"師大和平店\"}]}",
      "Phone": "02-23511611",
      "AvailableTime": "AH//wAAAAH//wAAAAH//wAAAAH//wAAAAH//wAAAAH//wAAAAH//wAAA",
      "State": 1,
      "UpdateTime": "2017-07-12T05:51:40.867Z"
    },
    {
      "Id": "4abc10ed-9710-44a9-ad6c-7a9764a401f1",
      "GeoPoint": {
        "Latitude": 24.185381,
        "Longitude": 120.621351
      },
      "ZipCode": "407",
      "City": "{\"List\":[{\"Value\":\"Taichung City\",\"Lang\":\"en-US\"},{\"Value\":\"台中市\",\"Lang\":\"zh-TW\"}]}",
      "District": "{\"List\":[{\"Lang\":\"en-US\", \"Value\":\"Xitun Dist.,\"}, {\"Lang\":\"zh-TW\", \"Value\":\"西屯區\"}]}",
      "Address": "{\"List\":[{\"Lang\":\"en-US\", \"Value\":\"No.172, Yongfu Rd., Xitun Dist., Taichung City 407\"}, {\"Lang\":\"zh-TW\", \"Value\":\"台中市西屯區永福路172號\"}]}",
      "Type": 48,
      "Name": "{\"List\":[{\"Lang\":\"en-US\", \"Value\":\"Taichung Yongfu\"}, {\"Lang\":\"zh-TW\", \"Value\":\"台中永福服務中心\"}]}",
      "Phone": "0981138222",
      "AvailableTime": "A///wAAAA///wAAAA///wAAAA///wAAAA///wAAAA///wAAAA///wAAA",
      "State": 1,
      "UpdateTime": "2017-03-15T02:27:10.59Z"
    },
    {
      "Id": "0c0c54dc-c2fa-4190-911a-7cfa3f8f91b5",
      "GeoPoint": {
        "Latitude": 22.9944089,
        "Longitude": 120.2053424
      },
      "ZipCode": "700",
      "City": "{\"List\":[{\"Value\":\"Tainan City\",\"Lang\":\"en-US\"},{\"Value\":\"台南市\",\"Lang\":\"zh-TW\"}]}",
      "District": "{\"List\":[{\"Lang\":\"en-US\", \"Value\":\"West Central Dist.\"}, {\"Lang\":\"zh-TW\", \"Value\":\"中西區\"}]}",
      "Address": "{\"List\":[{\"Lang\":\"en-US\", \"Value\":\"1F., No.36, Gongyuan Rd., West Central Dist., Tainan City 700\"}, {\"Lang\":\"zh-TW\", \"Value\":\"台南市中西區三民里公園路36號1樓\"}]}",
      "Type": 48,
      "Name": "{\"List\":[{\"Lang\":\"en-US\", \"Value\":\"Tainan Gongyuan\"}, {\"Lang\":\"zh-TW\", \"Value\":\"台南公園服務中心\"}]}",
      "Phone": "0981-167111",
      "AvailableTime": "AP//wAAAAP//wAAAAP//wAAAAP//wAAAAP//wAAAAP//wAAAAAAAAAAA",
      "State": 1,
      "UpdateTime": "2018-08-15T22:34:35.67Z"
    },
    {
      "Id": "d94d2957-1a09-4b26-9289-7d16e9e503b4",
      "GeoPoint": {
        "Latitude": 22.592607,
        "Longitude": 120.32691
      },
      "ZipCode": "830",
      "City": "{\"List\":[{\"Value\":\"Kaohsiung City\",\"Lang\":\"en-US\"},{\"Value\":\"高雄市\",\"Lang\":\"zh-TW\"}]}",
      "District": "{\"List\":[{\"Lang\":\"en-US\", \"Value\":\"Fengshan Dist.,\"}, {\"Lang\":\"zh-TW\", \"Value\":\"鳳山區\"}]}",
      "Address": "{\"List\":[{\"Lang\":\"en-US\", \"Value\":\"No.66、68, Wujia 3rd Rd., Fengshan Dist., Kaohsiung City 830\"}, {\"Lang\":\"zh-TW\", \"Value\":\"高雄市鳳山區五甲三路66、68號\"}]}",
      "Type": 240,
      "Name": "{\"List\":[{\"Lang\":\"en-US\", \"Value\":\"Kaohsiung WuChia\"}, {\"Lang\":\"zh-TW\", \"Value\":\"高雄五甲服務中心\"}]}",
      "Phone": "0981-182-333",
      "AvailableTime": "AP//wAAAAP//wAAAAP//wAAAAP//wAAAAP//wAAAAP//wAAAAAAAAAAA",
      "State": 1,
      "UpdateTime": "2018-08-20T06:34:37.15Z"
    },
    {
      "Id": "5b8a7e19-b0d6-40b7-bc68-7d1ead035774",
      "GeoPoint": {
        "Latitude": 25.05351,
        "Longitude": 121.471818
      },
      "ZipCode": "241",
      "City": "{\"List\":[{\"Value\":\"New Taipei City\",\"Lang\":\"en-US\"},{\"Value\":\"新北市\",\"Lang\":\"zh-TW\"}]}",
      "District": "{\"List\":[{\"Lang\":\"en-US\", \"Value\":\"Sanchong Dist.,\"}, {\"Lang\":\"zh-TW\", \"Value\":\"新北市\"}]}",
      "Address": "{\"List\":[{\"Lang\":\"en-US\", \"Value\":\"1F., No.4, Sec. 2, Guangfu Rd., Sanchong Dist., New Taipei City\"}, {\"Lang\":\"zh-TW\", \"Value\":\"新北市三重區中興里光復路二段4號\"}]}",
      "Type": 240,
      "Name": "{\"List\":[{\"Lang\":\"en-US\", \"Value\":\"Sanchong Guangfu\"}, {\"Lang\":\"zh-TW\", \"Value\":\"三重光復服務中心\"}]}",
      "Phone": "02-22784898",
      "AvailableTime": "A///wAAAA///wAAAA///wAAAA///wAAAA///wAAAA///wAAAAAAAAAAA",
      "State": 1,
      "UpdateTime": "2018-08-16T03:34:33.69Z"
    },
    {
      "Id": "d90eb0f1-f75d-487c-98a6-7d61102367c3",
      "GeoPoint": {
        "Latitude": 25.046222,
        "Longitude": 121.292588
      },
      "ZipCode": "338",
      "City": "{\"List\":[{\"Value\":\"Taoyuan City\",\"Lang\":\"en-US\"},{\"Value\":\"桃園市\",\"Lang\":\"zh-TW\"}]}",
      "District": "{\"List\":[{\"Lang\":\"en-US\", \"Value\":\"Luzhu Dist.,\"}, {\"Lang\":\"zh-TW\", \"Value\":\"蘆竹區\"}]}",
      "Address": "{\"List\":[{\"Lang\":\"en-US\", \"Value\":\"No 217, Zhongzheng Rd., Luzhu Dist., Taoyuan City\"}, {\"Lang\":\"zh-TW\", \"Value\":\"桃園市蘆竹區中正路217號\"}]}",
      "Type": 206,
      "Name": "{\"List\":[{\"Lang\":\"en-US\", \"Value\":\"Nankan Zhongzheng\"}, {\"Lang\":\"zh-TW\", \"Value\":\"南崁中正門市\"}]}",
      "Phone": "0981-066656",
      "AvailableTime": "AP//wAAAAP//wAAAAP//wAAAAP//wAAAAP//wAAAAP//wAAAAP//wAAA",
      "State": 1,
      "UpdateTime": "2018-08-16T05:34:33.217Z"
    },
    {
      "Id": "19e2d482-92fa-45af-8c4a-7e59939689df",
      "GeoPoint": {
        "Latitude": 22.549765,
        "Longitude": 120.537443
      },
      "ZipCode": "920",
      "City": "{\"List\":[{\"Value\":\"Pingtung County\",\"Lang\":\"en-US\"},{\"Value\":\"屏東縣\",\"Lang\":\"zh-TW\"}]}",
      "District": "{\"List\":[{\"Lang\":\"en-US\", \"Value\":\"Chaozhou Township,\"}, {\"Lang\":\"zh-TW\", \"Value\":\"屏東縣\"}]}",
      "Address": "{\"List\":[{\"Lang\":\"en-US\", \"Value\":\"No.177, Zhongshan Rd., Chaozhou Township, Pingtung County\"}, {\"Lang\":\"zh-TW\", \"Value\":\"屏東縣潮州鎮中山路177號\"}]}",
      "Type": 48,
      "Name": "{\"List\":[{\"Lang\":\"en-US\", \"Value\":\"Pingtung Chaozhou\"}, {\"Lang\":\"zh-TW\", \"Value\":\"屏東潮州服務中心\"}]}",
      "Phone": "08-7899858",
      "AvailableTime": "AP//wAAAAP//wAAAAP//wAAAAP//wAAAAP//wAAAAP//wAAAAAAAAAAA",
      "State": 1,
      "UpdateTime": "2018-09-08T09:45:29.43Z"
    },
    {
      "Id": "30751e2f-ca18-4a5b-9adc-7e863ee4f0bd",
      "GeoPoint": {
        "Latitude": 22.665515,
        "Longitude": 120.320886
      },
      "ZipCode": "807",
      "City": "{\"List\":[{\"Value\":\"Kaohsiung City\",\"Lang\":\"en-US\"},{\"Value\":\"高雄市\",\"Lang\":\"zh-TW\"}]}",
      "District": "{\"List\":[{\"Lang\":\"en-US\", \"Value\":\"Sanmin Dist.,\"}, {\"Lang\":\"zh-TW\", \"Value\":\"三民區\"}]}",
      "Address": "{\"List\":[{\"Lang\":\"en-US\", \"Value\":\"No. 95, Dingqiang Street, Sanmin Dist., Kaohsiung City 807\"}, {\"Lang\":\"zh-TW\", \"Value\":\"高雄市三民區鼎中里鼎強街95-1號\"}]}",
      "Type": 240,
      "Name": "{\"List\":[{\"Lang\":\"en-US\", \"Value\":\"Sanmin Dinqiang service center\"}, {\"Lang\":\"zh-TW\", \"Value\":\"三民鼎強服務中心\"}]}",
      "Phone": "07-359-5028",
      "AvailableTime": "AP//wAAAAP//wAAAAP//wAAAAP//wAAAAP//wAAAAP//wAAAAAAAAAAA",
      "State": 1,
      "UpdateTime": "2018-08-20T07:34:36.033Z"
    },
    {
      "Id": "3b624d0d-78de-4238-ba0a-7eaf55ca95c1",
      "GeoPoint": {
        "Latitude": 24.8057745,
        "Longitude": 120.9621682
      },
      "ZipCode": "300",
      "City": "{\"List\":[{\"Value\":\"Hsinchu City\",\"Lang\":\"en-US\"},{\"Value\":\"新竹市\",\"Lang\":\"zh-TW\"}]}",
      "District": "{\"List\":[{\"Lang\":\"en-US\", \"Value\":\"North Dist.\"}, {\"Lang\":\"zh-TW\", \"Value\":\"北區\"}]}",
      "Address": "{\"List\":[{\"Lang\":\"en-US\", \"Value\":\"1&2F., No.321, Beida Rd., North Dist., Hsinchu City 300\"}, {\"Lang\":\"zh-TW\", \"Value\":\"新竹市北區北大路321號\"}]}",
      "Type": 206,
      "Name": "{\"List\":[{\"Lang\":\"en-US\", \"Value\":\"Hsinchu Beida\"}, {\"Lang\":\"zh-TW\", \"Value\":\"新竹北大店\"}]}",
      "Phone": "03-5223123",
      "AvailableTime": "A///wAAAA///wAAAA///wAAAA///wAAAA///wAAAA///wAAAA///wAAA",
      "State": 1,
      "UpdateTime": "2017-03-15T02:27:10.59Z"
    },
    {
      "Id": "439c19e7-a515-4d52-aaa4-7ec7bca97928",
      "GeoPoint": {
        "Latitude": 22.987919,
        "Longitude": 120.186581
      },
      "ZipCode": "708",
      "City": "{\"List\":[{\"Value\":\"Tainan City\",\"Lang\":\"en-US\"},{\"Value\":\"台南市\",\"Lang\":\"zh-TW\"}]}",
      "District": "{\"List\":[{\"Lang\":\"en-US\", \"Value\":\"Anping Dist.,\"}, {\"Lang\":\"zh-TW\", \"Value\":\"台南市\"}]}",
      "Address": "{\"List\":[{\"Lang\":\"en-US\", \"Value\":\"No.59, Sec. 2, Zhonghua W. Rd., Anping Dist., Tainan City\"}, {\"Lang\":\"zh-TW\", \"Value\":\"台南市安平區中華西路二段59號\"}]}",
      "Type": 48,
      "Name": "{\"List\":[{\"Lang\":\"en-US\", \"Value\":\"Anping Zhonghua\"}, {\"Lang\":\"zh-TW\", \"Value\":\"安平中華服務中心\"}]}",
      "Phone": "06-2959729",
      "AvailableTime": "AP//wAAAAP//wAAAAP//wAAAAP//wAAAAP//wAAAAP//wAAAAP//wAAA",
      "State": 1,
      "UpdateTime": "2018-08-16T02:34:33.813Z"
    },
    {
      "Id": "7084b7b8-a2d0-4446-8857-824a1250c27e",
      "GeoPoint": {
        "Latitude": 24.8057745,
        "Longitude": 120.9621682
      },
      "ZipCode": "300",
      "City": "{\"List\":[{\"Value\":\"Hsinchu City\",\"Lang\":\"en-US\"},{\"Value\":\"新竹市\",\"Lang\":\"zh-TW\"}]}",
      "District": "{\"List\":[{\"Lang\":\"en-US\", \"Value\":\"North Dist.\"}, {\"Lang\":\"zh-TW\", \"Value\":\"北區\"}]}",
      "Address": "{\"List\":[{\"Lang\":\"en-US\", \"Value\":\"1&2F., No.321, Beida Rd., North Dist., Hsinchu City 300\"}, {\"Lang\":\"zh-TW\", \"Value\":\"新竹市北區北大路321號\"}]}",
      "Type": 48,
      "Name": "{\"List\":[{\"Lang\":\"en-US\", \"Value\":\"Hsinchu Beida\"}, {\"Lang\":\"zh-TW\", \"Value\":\"新竹北大服務中心\"}]}",
      "Phone": "03-5223123",
      "AvailableTime": "A///wAAAA///wAAAA///wAAAA///wAAAA///wAAAA///wAAAAAAAAAAA",
      "State": 1,
      "UpdateTime": "2017-03-15T02:27:10.59Z"
    },
    {
      "Id": "88901950-a91f-404a-8d08-88b1ba2bc94f",
      "GeoPoint": {
        "Latitude": 24.1549749,
        "Longitude": 120.6792413
      },
      "ZipCode": "404",
      "City": "{\"List\":[{\"Value\":\"Taichung City\",\"Lang\":\"en-US\"},{\"Value\":\"台中市\",\"Lang\":\"zh-TW\"}]}",
      "District": "{\"List\":[{\"Lang\":\"en-US\", \"Value\":\"North Dist.\"}, {\"Lang\":\"zh-TW\", \"Value\":\"北區\"}]}",
      "Address": "{\"List\":[{\"Lang\":\"en-US\", \"Value\":\"No.112, Sec. 4, Liuchuan E. Rd., North Dist., Taichung City 404\"}, {\"Lang\":\"zh-TW\", \"Value\":\"台中市北區柳川東路四段112號\"}]}",
      "Type": 120,
      "Name": "{\"List\":[{\"Lang\":\"en-US\", \"Value\":\"Taichung Liuchuan Service Center\"}, {\"Lang\":\"zh-TW\", \"Value\":\"台中柳川服務中心\"}]}",
      "Phone": "0981686188",
      "AvailableTime": "A///wAAAA///wAAAA///wAAAA///wAAAA///wAAAA///wAAAAAAAAAAA",
      "State": 1,
      "UpdateTime": "2017-07-12T05:51:40.867Z"
    },
    {
      "Id": "0f752589-6b9f-49d1-a395-8ddaee4eae06",
      "GeoPoint": {
        "Latitude": 23.0289448,
        "Longitude": 120.2141105
      },
      "ZipCode": "709",
      "City": "{\"List\":[{\"Value\":\"Tainan City\",\"Lang\":\"en-US\"},{\"Value\":\"台南市\",\"Lang\":\"zh-TW\"}]}",
      "District": "{\"List\":[{\"Lang\":\"en-US\", \"Value\":\"Annan Dist.,\"}, {\"Lang\":\"zh-TW\", \"Value\":\"台南市\"}]}",
      "Address": "{\"List\":[{\"Lang\":\"en-US\", \"Value\":\"No.158, Sec. 1, Anhe Rd., Annan Dist., Tainan City\"}, {\"Lang\":\"zh-TW\", \"Value\":\"台南市安南區安和路一段158號\"}]}",
      "Type": 206,
      "Name": "{\"List\":[{\"Lang\":\"en-US\", \"Value\":\"Annan Anhe\"}, {\"Lang\":\"zh-TW\", \"Value\":\"安南安和門市\"}]}",
      "Phone": "06-251-8259",
      "AvailableTime": "A///wAAAA///wAAAA///wAAAA///wAAAA///wAAAA///wAAAA///wAAA",
      "State": 1,
      "UpdateTime": "2018-08-13T09:34:35.797Z"
    },
    {
      "Id": "76699b03-57ed-4d9e-9e91-90034a0cd7c4",
      "GeoPoint": {
        "Latitude": 22.639587,
        "Longitude": 120.350851
      },
      "ZipCode": "830",
      "City": "{\"List\":[{\"Value\":\"Kaohsiung City\",\"Lang\":\"en-US\"},{\"Value\":\"高雄市\",\"Lang\":\"zh-TW\"}]}",
      "District": "{\"List\":[{\"Lang\":\"en-US\", \"Value\":\"Fengshan Dist.,\"}, {\"Lang\":\"zh-TW\", \"Value\":\"鳳山區\"}]}",
      "Address": "{\"List\":[{\"Lang\":\"en-US\", \"Value\":\"No.287, Sec. 2, Qingnian Rd., Fengshan Dist., Kaohsiung City 830\"}, {\"Lang\":\"zh-TW\", \"Value\":\"高雄市鳳山區青年路二段287號\"}]}",
      "Type": 48,
      "Name": "{\"List\":[{\"Lang\":\"en-US\", \"Value\":\"Fengshan Qingnian\"}, {\"Lang\":\"zh-TW\", \"Value\":\"鳳山青年服務中心\"}]}",
      "Phone": "0981058333",
      "AvailableTime": "AP//wAAAAP//wAAAAP//wAAAAP//wAAAAP//wAAAAP//wAAAAAAAAAAA",
      "State": 1,
      "UpdateTime": "2017-03-15T02:27:10.59Z"
    },
    {
      "Id": "48076cd3-dd73-4267-b361-94b12ecabdb4",
      "GeoPoint": {
        "Latitude": 24.149449,
        "Longitude": 120.665093
      },
      "ZipCode": "403",
      "City": "{\"List\":[{\"Value\":\"Taichung City\",\"Lang\":\"en-US\"},{\"Value\":\"台中市\",\"Lang\":\"zh-TW\"}]}",
      "District": "{\"List\":[{\"Lang\":\"en-US\", \"Value\":\"West Dist.,\"}, {\"Lang\":\"zh-TW\", \"Value\":\"西區\"}]}",
      "Address": "{\"List\":[{\"Lang\":\"en-US\", \"Value\":\"No. 534, Yingcai Road, West Dist., Taichung City\"}, {\"Lang\":\"zh-TW\", \"Value\":\"台中市西區英才路534號\"}]}",
      "Type": 48,
      "Name": "{\"List\":[{\"Lang\":\"en-US\", \"Value\":\"Xiqu Yingcai service center\"}, {\"Lang\":\"zh-TW\", \"Value\":\"西區英才服務中心\"}]}",
      "Phone": "04-23025288",
      "AvailableTime": "A///wAAAA///wAAAA///wAAAA///wAAAA///wAAAA///wAAAAAAAAAAA",
      "State": 1,
      "UpdateTime": "2018-08-20T02:34:39.52Z"
    },
    {
      "Id": "a8f9564f-60cd-4235-94cb-971dfb752b1a",
      "GeoPoint": {
        "Latitude": 22.6696,
        "Longitude": 120.303737
      },
      "ZipCode": "813",
      "City": "{\"List\":[{\"Value\":\"Kaohsiung City\",\"Lang\":\"en-US\"},{\"Value\":\"高雄市\",\"Lang\":\"zh-TW\"}]}",
      "District": "{\"List\":[{\"Lang\":\"en-US\", \"Value\":\"Zuoying Dist.,\"}, {\"Lang\":\"zh-TW\", \"Value\":\"左營區\"}]}",
      "Address": "{\"List\":[{\"Lang\":\"en-US\", \"Value\":\"No.664, Bo’ai 2nd Rd., Zuoying Dist., Kaohsiung City 813\"}, {\"Lang\":\"zh-TW\", \"Value\":\"高雄市左營區博愛二路664號\"}]}",
      "Type": 48,
      "Name": "{\"List\":[{\"Lang\":\"en-US\", \"Value\":\"Zuoying Boai\"}, {\"Lang\":\"zh-TW\", \"Value\":\"左營博愛服務中心\"}]}",
      "Phone": "0981-166-000",
      "AvailableTime": "AP//wAAAAP//wAAAAP//wAAAAP//wAAAAP//wAAAAP//wAAAAAAAAAAA",
      "State": 1,
      "UpdateTime": "2018-08-20T07:34:36.233Z"
    },
    {
      "Id": "699eaaa5-dfaf-40e1-aa84-9a8dd2a65b76",
      "GeoPoint": {
        "Latitude": 22.639587,
        "Longitude": 120.350851
      },
      "ZipCode": "830",
      "City": "{\"List\":[{\"Value\":\"Kaohsiung City\",\"Lang\":\"en-US\"},{\"Value\":\"高雄市\",\"Lang\":\"zh-TW\"}]}",
      "District": "{\"List\":[{\"Lang\":\"en-US\", \"Value\":\"Fengshan Dist.,\"}, {\"Lang\":\"zh-TW\", \"Value\":\"鳳山區\"}]}",
      "Address": "{\"List\":[{\"Lang\":\"en-US\", \"Value\":\"No.287, Sec. 2, Qingnian Rd., Fengshan Dist., Kaohsiung City 830\"}, {\"Lang\":\"zh-TW\", \"Value\":\"高雄市鳳山區青年路二段287號\"}]}",
      "Type": 206,
      "Name": "{\"List\":[{\"Lang\":\"en-US\", \"Value\":\"Fengshan Qingnian\"}, {\"Lang\":\"zh-TW\", \"Value\":\"鳳山青年店\"}]}",
      "Phone": "0981058333",
      "AvailableTime": "AP//wAAAAP//wAAAAP//wAAAAP//wAAAAP//wAAAAP//wAAAAP//wAAA",
      "State": 1,
      "UpdateTime": "2017-03-15T02:27:10.59Z"
    },
    {
      "Id": "b80f197d-bf29-412d-91de-9afc71907a0e",
      "GeoPoint": {
        "Latitude": 25.105171,
        "Longitude": 121.52853
      },
      "ZipCode": "111",
      "City": "{\"List\":[{\"Value\":\"Taipei City\",\"Lang\":\"en-US\"},{\"Value\":\"台北市\",\"Lang\":\"zh-TW\"}]}",
      "District": "{\"List\":[{\"Lang\":\"en-US\", \"Value\":\"Shilin Dist.,\"}, {\"Lang\":\"zh-TW\", \"Value\":\"台北市\"}]}",
      "Address": "{\"List\":[{\"Lang\":\"en-US\", \"Value\":\"No.101, Sec. 1, Zhongcheng Rd., Shilin Dist., Taipei City\"}, {\"Lang\":\"zh-TW\", \"Value\":\"台北市士林區忠誠路一段101號\"}]}",
      "Type": 48,
      "Name": "{\"List\":[{\"Lang\":\"en-US\", \"Value\":\"Tainmu Zhongcheng\"}, {\"Lang\":\"zh-TW\", \"Value\":\"天母忠誠服務中心\"}]}",
      "Phone": "02-8866-6848",
      "AvailableTime": "AP//wAAAAP//wAAAAP//wAAAAP//wAAAAP//wAAAAP//wAAAAAAAAAAA",
      "State": 1,
      "UpdateTime": "2018-08-31T22:45:22.907Z"
    },
    {
      "Id": "6ddff12e-b3a6-4a7c-8f40-9c2e9a9b7f7d",
      "GeoPoint": {
        "Latitude": 24.9979853,
        "Longitude": 121.5162996
      },
      "ZipCode": "234",
      "City": "{\"List\":[{\"Value\":\"New Taipei City\",\"Lang\":\"en-US\"},{\"Value\":\"新北市\",\"Lang\":\"zh-TW\"}]}",
      "District": "{\"List\":[{\"Lang\":\"en-US\", \"Value\":\"Yonghe Dist.\"}, {\"Lang\":\"zh-TW\", \"Value\":\"永和區\"}]}",
      "Address": "{\"List\":[{\"Lang\":\"en-US\", \"Value\":\"No.236, Zhongzheng Rd., Yonghe Dist., New Taipei City\"}, {\"Lang\":\"zh-TW\", \"Value\":\"新北市永和區中正路236、238號\"}]}",
      "Type": 206,
      "Name": "{\"List\":[{\"Lang\":\"en-US\", \"Value\":\"Yonghe Zhongzheng Store\"}, {\"Lang\":\"zh-TW\", \"Value\":\"永和中正店\"}]}",
      "Phone": "02-29407878",
      "AvailableTime": "AP//wAAAAP//wAAAAP//wAAAAP//wAAAAP//wAAAAP//wAAAAP//wAAA",
      "State": 1,
      "UpdateTime": "2017-07-12T05:51:40.867Z"
    },
    {
      "Id": "3ab8c5f2-820b-4969-a739-9d6e60cc3271",
      "GeoPoint": {
        "Latitude": 24.9912268,
        "Longitude": 121.3161993
      },
      "ZipCode": "330",
      "City": "{\"List\":[{\"Value\":\"Taoyuan City\",\"Lang\":\"en-US\"},{\"Value\":\"桃園市\",\"Lang\":\"zh-TW\"}]}",
      "District": "{\"List\":[{\"Lang\":\"en-US\", \"Value\":\"Taoyuan Dist.\"}, {\"Lang\":\"zh-TW\", \"Value\":\"桃園區\"}]}",
      "Address": "{\"List\":[{\"Lang\":\"en-US\", \"Value\":\"No.20, Fuxing Rd., Taoyuan Dist., Taoyuan City 330\"}, {\"Lang\":\"zh-TW\", \"Value\":\"桃園市桃園區復興路20號\"}]}",
      "Type": 120,
      "Name": "{\"List\":[{\"Lang\":\"en-US\", \"Value\":\"Taoyuan Fuxing Service Center\"}, {\"Lang\":\"zh-TW\", \"Value\":\"桃園復興服務中心\"}]}",
      "Phone": "0981686166",
      "AvailableTime": "A///wAAAA///wAAAA///wAAAA///wAAAA///wAAAA///wAAAAAAAAAAA",
      "State": 1,
      "UpdateTime": "2017-07-12T05:51:40.867Z"
    },
    {
      "Id": "8e703870-b967-4120-8f02-9ebce36d35a5",
      "GeoPoint": {
        "Latitude": 25.08896,
        "Longitude": 121.486458
      },
      "ZipCode": "247",
      "City": "{\"List\":[{\"Value\":\"New Taipei City\",\"Lang\":\"en-US\"},{\"Value\":\"新北市\",\"Lang\":\"zh-TW\"}]}",
      "District": "{\"List\":[{\"Lang\":\"en-US\", \"Value\":\"Sanchong Dist.,\"}, {\"Lang\":\"zh-TW\", \"Value\":\"新北市\"}]}",
      "Address": "{\"List\":[{\"Lang\":\"en-US\", \"Value\":\"No.186, Jixian Rd., Sanchong Dist., New Taipei City\"}, {\"Lang\":\"zh-TW\", \"Value\":\"新北市三重區集賢路186-5號\"}]}",
      "Type": 48,
      "Name": "{\"List\":[{\"Lang\":\"en-US\", \"Value\":\"Sanchong Jixian\"}, {\"Lang\":\"zh-TW\", \"Value\":\"三重集賢服務中心\"}]}",
      "Phone": "02-2285-5556",
      "AvailableTime": "AP//wAAAAP//wAAAAP//wAAAAP//wAAAAP//wAAAAP//wAAAAP//wAAA",
      "State": 1,
      "UpdateTime": "2018-08-17T23:34:39.217Z"
    },
    {
      "Id": "40fb8ea4-1905-4e7e-8764-9f9ed7640349",
      "GeoPoint": {
        "Latitude": 25.053049,
        "Longitude": 121.361287
      },
      "ZipCode": "333",
      "City": "{\"List\":[{\"Value\":\"Taoyuan City\",\"Lang\":\"en-US\"},{\"Value\":\"桃園市\",\"Lang\":\"zh-TW\"}]}",
      "District": "{\"List\":[{\"Lang\":\"en-US\", \"Value\":\"Guishan Dist.,\"}, {\"Lang\":\"zh-TW\", \"Value\":\"龜山區\"}]}",
      "Address": "{\"List\":[{\"Lang\":\"en-US\", \"Value\":\"No.20-1, Wenhua 7th Rd., Guishan Dist., Taoyuan City\"}, {\"Lang\":\"zh-TW\", \"Value\":\"桃園市龜山區文化七路20之1號\"}]}",
      "Type": 240,
      "Name": "{\"List\":[{\"Lang\":\"en-US\", \"Value\":\"Guishan Wenhua\"}, {\"Lang\":\"zh-TW\", \"Value\":\"龜山文化服務中心\"}]}",
      "Phone": "03-3183489",
      "AvailableTime": "A///AAAAA///AAAAA///AAAAA///AAAAA///AAAAA///AAAAAAAAAAAA",
      "State": 1,
      "UpdateTime": "2018-08-16T04:34:33.807Z"
    },
    {
      "Id": "18e54493-1f97-4d99-8e25-a208775a9724",
      "GeoPoint": {
        "Latitude": 25.0498814,
        "Longitude": 121.5751152
      },
      "ZipCode": "105",
      "City": "{\"List\":[{\"Value\":\"Taipei City\",\"Lang\":\"en-US\"},{\"Value\":\"台北市\",\"Lang\":\"zh-TW\"}]}",
      "District": "{\"List\":[{\"Lang\":\"en-US\", \"Value\":\"Songshan Dist.\"}, {\"Lang\":\"zh-TW\", \"Value\":\"松山區\"}]}",
      "Address": "{\"List\":[{\"Lang\":\"en-US\", \"Value\":\"No. 650, Bade Rd. Sec.4, Songshan Dist. Taipei City\"}, {\"Lang\":\"zh-TW\", \"Value\":\"臺北市松山區八德路四段650號\"}]}",
      "Type": 48,
      "Name": "{\"List\":[{\"Lang\":\"en-US\", \"Value\":\"Songshan Raohe Service Center\"}, {\"Lang\":\"zh-TW\", \"Value\":\"松山饒河服務中心\"}]}",
      "Phone": "0981006000",
      "AvailableTime": "AD//wAAAAD//wAAAAD//wAAAAD//wAAAAD//wAAAAD//wAAAAAAAAAAA",
      "State": 1,
      "UpdateTime": "2017-07-12T05:51:40.867Z"
    },
    {
      "Id": "8da967b3-980a-4353-8e99-a4a0a3881f08",
      "GeoPoint": {
        "Latitude": 23.310799,
        "Longitude": 120.312857
      },
      "ZipCode": "730",
      "City": "{\"List\":[{\"Value\":\"Tainan City\",\"Lang\":\"en-US\"},{\"Value\":\"台南市\",\"Lang\":\"zh-TW\"}]}",
      "District": "{\"List\":[{\"Lang\":\"en-US\", \"Value\":\"Xinying Dist.,\"}, {\"Lang\":\"zh-TW\", \"Value\":\"台南市\"}]}",
      "Address": "{\"List\":[{\"Lang\":\"en-US\", \"Value\":\"No.62-3, Minzhi Rd., Xinying Dist., Tainan City\"}, {\"Lang\":\"zh-TW\", \"Value\":\"台南市新營區民治路62之3號\"}]}",
      "Type": 206,
      "Name": "{\"List\":[{\"Lang\":\"en-US\", \"Value\":\"Tainan Xinyin\"}, {\"Lang\":\"zh-TW\", \"Value\":\"台南新營門市\"}]}",
      "Phone": "06-6325105",
      "AvailableTime": "AP//wAAAAP//wAAAAP//wAAAAP//wAAAAP//wAAAAP//wAAAAP//wAAA",
      "State": 1,
      "UpdateTime": "2018-09-08T09:45:29.537Z"
    },
    {
      "Id": "9f4a3068-68a3-44e6-a545-a60e2b83debf",
      "GeoPoint": {
        "Latitude": 24.076766,
        "Longitude": 120.544071
      },
      "ZipCode": "500",
      "City": "{\"List\":[{\"Value\":\"Changhua County\",\"Lang\":\"en-US\"},{\"Value\":\"彰化縣\",\"Lang\":\"zh-TW\"}]}",
      "District": "{\"List\":[{\"Lang\":\"en-US\", \"Value\":\"Changhua City\"}, {\"Lang\":\"zh-TW\", \"Value\":\"彰化市\"}]}",
      "Address": "{\"List\":[{\"Lang\":\"en-US\", \"Value\":\"No. 437, Section 2, Zhongshan Road, Changhua City Changhua County\"}, {\"Lang\":\"zh-TW\", \"Value\":\"彰化縣彰化市中山路二段437號\"}]}",
      "Type": 206,
      "Name": "{\"List\":[{\"Lang\":\"en-US\", \"Value\":\"Zhanghua Zhongshan\"}, {\"Lang\":\"zh-TW\", \"Value\":\"彰化中山門市\"}]}",
      "Phone": "04-720-1966",
      "AvailableTime": "AP//wAAAAP//wAAAAP//wAAAAP//wAAAAP//wAAAAP//wAAAAP//wAAA",
      "State": 1,
      "UpdateTime": "2018-08-20T02:34:39.7Z"
    },
    {
      "Id": "7b3f1928-24f7-4913-a642-a793ea35de2d",
      "GeoPoint": {
        "Latitude": 22.971419,
        "Longitude": 120.227319
      },
      "ZipCode": "701",
      "City": "{\"List\":[{\"Value\":\"Tainan City\",\"Lang\":\"en-US\"},{\"Value\":\"台南市\",\"Lang\":\"zh-TW\"}]}",
      "District": "{\"List\":[{\"Lang\":\"en-US\", \"Value\":\"East Dist.,\"}, {\"Lang\":\"zh-TW\", \"Value\":\"台南市\"}]}",
      "Address": "{\"List\":[{\"Lang\":\"en-US\", \"Value\":\"No.592, Chongde Rd., East Dist., Tainan City\"}, {\"Lang\":\"zh-TW\", \"Value\":\"台南市東區崇德路592號\"}]}",
      "Type": 48,
      "Name": "{\"List\":[{\"Lang\":\"en-US\", \"Value\":\"East Chongde\"}, {\"Lang\":\"zh-TW\", \"Value\":\"東區崇德服務中心\"}]}",
      "Phone": "06-2676233",
      "AvailableTime": "AP//wAAAAP//wAAAAP//wAAAAP//wAAAAP//wAAAAP//wAAAAP//wAAA",
      "State": 1,
      "UpdateTime": "2018-08-16T03:34:33.73Z"
    },
    {
      "Id": "924d69a7-39dc-4bb6-ac66-a9cbe8f049dc",
      "GeoPoint": {
        "Latitude": 24.7541649,
        "Longitude": 121.7503511
      },
      "ZipCode": "260",
      "City": "{\"List\":[{\"Value\":\"Yilan County\",\"Lang\":\"en-US\"},{\"Value\":\"宜蘭縣\",\"Lang\":\"zh-TW\"}]}",
      "District": "{\"List\":[{\"Lang\":\"en-US\", \"Value\":\"Yilan City,\"}, {\"Lang\":\"zh-TW\", \"Value\":\"宜蘭市\"}]}",
      "Address": "{\"List\":[{\"Lang\":\"en-US\", \"Value\":\"No.518, Sec. 2, Zhongshan Rd., Yilan City, Yilan County\"}, {\"Lang\":\"zh-TW\", \"Value\":\"宜蘭縣宜蘭市中山路二段518號\"}]}",
      "Type": 206,
      "Name": "{\"List\":[{\"Lang\":\"en-US\", \"Value\":\"Yilan Zhongshan\"}, {\"Lang\":\"zh-TW\", \"Value\":\"宜蘭中山門市\"}]}",
      "Phone": "03-9326660",
      "AvailableTime": "H///gAAAH///gAAAH///gAAAH///gAAAH///gAAAH///gAAAH///gAAA",
      "State": 1,
      "UpdateTime": "2018-08-13T07:34:37.24Z"
    },
    {
      "Id": "acb63b85-165c-4ccf-ac28-aa817eee17f0",
      "GeoPoint": {
        "Latitude": 25.0630894,
        "Longitude": 121.4974433
      },
      "ZipCode": "241",
      "City": "{\"List\":[{\"Value\":\"New Taipei City\",\"Lang\":\"en-US\"},{\"Value\":\"新北市\",\"Lang\":\"zh-TW\"}]}",
      "District": "{\"List\":[{\"Lang\":\"en-US\", \"Value\":\"Sanchong Dist.\"}, {\"Lang\":\"zh-TW\", \"Value\":\"三重區\"}]}",
      "Address": "{\"List\":[{\"Lang\":\"en-US\", \"Value\":\"No.24, Zhengyi N. Rd., Sanchong Dist., New Taipei City\"}, {\"Lang\":\"zh-TW\", \"Value\":\"新北市三重區正義北路24號\"}]}",
      "Type": 48,
      "Name": "{\"List\":[{\"Lang\":\"en-US\", \"Value\":\"Sanchong Zhengyi Store\"}, {\"Lang\":\"zh-TW\", \"Value\":\"三重正義服務中心\"}]}",
      "Phone": "02-29892020",
      "AvailableTime": "A///wAAAA///wAAAA///wAAAA///wAAAA///wAAAA///wAAAAAAAAAAA",
      "State": 1,
      "UpdateTime": "2017-03-15T02:27:10.59Z"
    },
    {
      "Id": "f0d03e11-0f86-4f9c-bb53-aad162a55e98",
      "GeoPoint": {
        "Latitude": 24.076766,
        "Longitude": 120.544071
      },
      "ZipCode": "500",
      "City": "{\"List\":[{\"Value\":\"Changhua County\",\"Lang\":\"en-US\"},{\"Value\":\"彰化縣\",\"Lang\":\"zh-TW\"}]}",
      "District": "{\"List\":[{\"Lang\":\"en-US\", \"Value\":\"Changhua City\"}, {\"Lang\":\"zh-TW\", \"Value\":\"彰化市\"}]}",
      "Address": "{\"List\":[{\"Lang\":\"en-US\", \"Value\":\"No. 437, Section 2, Zhongshan Road, Changhua City Changhua County\"}, {\"Lang\":\"zh-TW\", \"Value\":\"彰化縣彰化市中山路二段437號\"}]}",
      "Type": 48,
      "Name": "{\"List\":[{\"Lang\":\"en-US\", \"Value\":\"Zhanghua Zhongshan\"}, {\"Lang\":\"zh-TW\", \"Value\":\"彰化中山服務中心\"}]}",
      "Phone": "04-720-1966",
      "AvailableTime": "AP//wAAAAP//wAAAAP//wAAAAP//wAAAAP//wAAAAP//wAAAAAAAAAAA",
      "State": 1,
      "UpdateTime": "2018-08-20T02:34:40.027Z"
    },
    {
      "Id": "38215c71-d405-4399-8afb-ab9c973ac423",
      "GeoPoint": {
        "Latitude": 24.1099101,
        "Longitude": 120.6888016
      },
      "ZipCode": "412",
      "City": "{\"List\":[{\"Value\":\"Taichung City\",\"Lang\":\"en-US\"},{\"Value\":\"台中市\",\"Lang\":\"zh-TW\"}]}",
      "District": "{\"List\":[{\"Lang\":\"en-US\", \"Value\":\"Dali Dist.\"}, {\"Lang\":\"zh-TW\", \"Value\":\"大里區\"}]}",
      "Address": "{\"List\":[{\"Lang\":\"en-US\", \"Value\":\"1F., No.132, Sec. 1, Dongrong Rd., Dali Dist., Taichung City 412\"}, {\"Lang\":\"zh-TW\", \"Value\":\"台中市大里區東榮路一段132號\"}]}",
      "Type": 238,
      "Name": "{\"List\":[{\"Lang\":\"en-US\", \"Value\":\"Dali Dongrong\"}, {\"Lang\":\"zh-TW\", \"Value\":\"大里東榮店\"}]}",
      "Phone": "04-24819198",
      "AvailableTime": "A///4AAAA///4AAAA///4AAAA///4AAAA///4AAAA///4AAAA///4AAA",
      "State": 1,
      "UpdateTime": "2017-03-15T02:27:10.59Z"
    },
    {
      "Id": "ff557c71-64c7-4eb0-b999-ae223e74c301",
      "GeoPoint": {
        "Latitude": 24.7541649,
        "Longitude": 121.7503511
      },
      "ZipCode": "260",
      "City": "{\"List\":[{\"Value\":\"Yilan County\",\"Lang\":\"en-US\"},{\"Value\":\"宜蘭縣\",\"Lang\":\"zh-TW\"}]}",
      "District": "{\"List\":[{\"Lang\":\"en-US\", \"Value\":\"Yilan City,\"}, {\"Lang\":\"zh-TW\", \"Value\":\"宜蘭市\"}]}",
      "Address": "{\"List\":[{\"Lang\":\"en-US\", \"Value\":\"No.518, Sec. 2, Zhongshan Rd., Yilan City, Yilan County\"}, {\"Lang\":\"zh-TW\", \"Value\":\"宜蘭縣宜蘭市中山路二段518號\"}]}",
      "Type": 48,
      "Name": "{\"List\":[{\"Lang\":\"en-US\", \"Value\":\"Yilan Zhongshan\"}, {\"Lang\":\"zh-TW\", \"Value\":\"宜蘭中山服務中心\"}]}",
      "Phone": "03-9326660",
      "AvailableTime": "H///gAAAH///gAAAH///gAAAH///gAAAH///gAAAH///gAAAAAAAAAAA",
      "State": 1,
      "UpdateTime": "2018-08-13T07:34:37.16Z"
    },
    {
      "Id": "8efe53c6-e6f9-450a-813e-b084c60b7a0a",
      "GeoPoint": {
        "Latitude": 22.990259,
        "Longitude": 120.246207
      },
      "ZipCode": "701",
      "City": "{\"List\":[{\"Value\":\"Tainan City\",\"Lang\":\"en-US\"},{\"Value\":\"台南市\",\"Lang\":\"zh-TW\"}]}",
      "District": "{\"List\":[{\"Lang\":\"en-US\", \"Value\":\"East Dist.,\"}, {\"Lang\":\"zh-TW\", \"Value\":\"東區\"}]}",
      "Address": "{\"List\":[{\"Lang\":\"en-US\", \"Value\":\"No. 1016, Yunong Road, East Dist., Tainan City\"}, {\"Lang\":\"zh-TW\", \"Value\":\"臺南市東區裕農路1016號\"}]}",
      "Type": 240,
      "Name": "{\"List\":[{\"Lang\":\"en-US\", \"Value\":\"Tainan Yunong\"}, {\"Lang\":\"zh-TW\", \"Value\":\"台南裕農服務中心\"}]}",
      "Phone": "06-331-7665",
      "AvailableTime": "A///wAAAA///wAAAA///wAAAA///wAAAA///wAAAA///wAAAAAAAAAAA",
      "State": 1,
      "UpdateTime": "2018-08-19T00:34:37.147Z"
    },
    {
      "Id": "1b2a465e-ce97-4280-863f-b399d5f505f3",
      "GeoPoint": {
        "Latitude": 24.2517394,
        "Longitude": 120.7145492
      },
      "ZipCode": "420",
      "City": "{\"List\":[{\"Value\":\"Taichung City\",\"Lang\":\"en-US\"},{\"Value\":\"台中市\",\"Lang\":\"zh-TW\"}]}",
      "District": "{\"List\":[{\"Lang\":\"en-US\", \"Value\":\"Fengyuan Dist.,\"}, {\"Lang\":\"zh-TW\", \"Value\":\"豐原區\"}]}",
      "Address": "{\"List\":[{\"Lang\":\"en-US\", \"Value\":\"No.15, Ln. 510, Zhongshan Rd., Fengyuan Dist., Taichung City 420\"}, {\"Lang\":\"zh-TW\", \"Value\":\"台中市豐原區豐西里中山路510巷15號\"}]}",
      "Type": 56,
      "Name": "{\"List\":[{\"Lang\":\"en-US\", \"Value\":\"Fengyuan Service Center\"}, {\"Lang\":\"zh-TW\", \"Value\":\"豐原中山服務中心\"}]}",
      "Phone": "0981686177",
      "AvailableTime": "A///wAAAA///wAAAA///wAAAA///wAAAA///wAAAA///wAAAAAAAAAAA",
      "State": 1,
      "UpdateTime": "2017-07-12T05:51:40.867Z"
    },
    {
      "Id": "7f968df7-3882-486e-a371-b4b04f0804a7",
      "GeoPoint": {
        "Latitude": 22.78982,
        "Longitude": 120.296515
      },
      "ZipCode": "820",
      "City": "{\"List\":[{\"Value\":\"Kaohsiung City\",\"Lang\":\"en-US\"},{\"Value\":\"高雄市\",\"Lang\":\"zh-TW\"}]}",
      "District": "{\"List\":[{\"Lang\":\"en-US\", \"Value\":\"Gangshan Dist.,\"}, {\"Lang\":\"zh-TW\", \"Value\":\"高雄市\"}]}",
      "Address": "{\"List\":[{\"Lang\":\"en-US\", \"Value\":\"1F., No.164, Gangshan Rd.,Gangshan Dist., Kaohsiung City\"}, {\"Lang\":\"zh-TW\", \"Value\":\"高雄市岡山區岡山路164號1樓\"}]}",
      "Type": 206,
      "Name": "{\"List\":[{\"Lang\":\"en-US\", \"Value\":\"Kaohsiung Gangshan\"}, {\"Lang\":\"zh-TW\", \"Value\":\"高雄岡山門市\"}]}",
      "Phone": "0981-139966",
      "AvailableTime": "AP//wAAAAP//wAAAAP//wAAAAP//wAAAAP//wAAAAP//wAAAAP//wAAA",
      "State": 1,
      "UpdateTime": "2018-08-15T22:34:35.807Z"
    },
    {
      "Id": "accafc57-ab56-459c-a04c-bbd7dc63d157",
      "GeoPoint": {
        "Latitude": 24.982282,
        "Longitude": 121.449554
      },
      "ZipCode": "236",
      "City": "{\"List\":[{\"Value\":\"New Taipei City\",\"Lang\":\"en-US\"},{\"Value\":\"新北市\",\"Lang\":\"zh-TW\"}]}",
      "District": "{\"List\":[{\"Lang\":\"en-US\", \"Value\":\"Tucheng Dist.\"}, {\"Lang\":\"zh-TW\", \"Value\":\"土城區\"}]}",
      "Address": "{\"List\":[{\"Lang\":\"en-US\", \"Value\":\"No. 129 , Sec. 2, Minder Rd., Tucheng Dist., New Taipei City 236\"}, {\"Lang\":\"zh-TW\", \"Value\":\"新北市土城區明德路二段129號\"}]}",
      "Type": 240,
      "Name": "{\"List\":[{\"Lang\":\"en-US\", \"Value\":\"Tucheng Service Center\"}, {\"Lang\":\"zh-TW\", \"Value\":\"土城明德服務中心\"}]}",
      "Phone": "0981686155",
      "AvailableTime": "AP//wAAAAP//wAAAAP//wAAAAP//wAAAAP//wAAAAP//wAAAAAAAAAAA",
      "State": 1,
      "UpdateTime": "2018-08-17T23:34:39.053Z"
    },
    {
      "Id": "ccf62e52-8a4d-4341-8bbe-bce58b24e948",
      "GeoPoint": {
        "Latitude": 22.674148,
        "Longitude": 120.490622
      },
      "ZipCode": "900",
      "City": "{\"List\":[{\"Value\":\"Pingtung County\",\"Lang\":\"en-US\"},{\"Value\":\"屏東縣\",\"Lang\":\"zh-TW\"}]}",
      "District": "{\"List\":[{\"Lang\":\"en-US\", \"Value\":\"Pingtung City\"}, {\"Lang\":\"zh-TW\", \"Value\":\"屏東市\"}]}",
      "Address": "{\"List\":[{\"Lang\":\"en-US\", \"Value\":\"No. 80, Zhonghua Road, Pingtung City Pingtung County\"}, {\"Lang\":\"zh-TW\", \"Value\":\"屏東縣屏東市中華路80號\"}]}",
      "Type": 206,
      "Name": "{\"List\":[{\"Lang\":\"en-US\", \"Value\":\"Pingtong Gongyuan\"}, {\"Lang\":\"zh-TW\", \"Value\":\"屏東公園門市\"}]}",
      "Phone": "08-733-8868",
      "AvailableTime": "AP//wAAAAP//wAAAAP//wAAAAP//wAAAAP//wAAAAP//wAAAAP//wAAA",
      "State": 1,
      "UpdateTime": "2018-08-20T02:34:39.843Z"
    },
    {
      "Id": "37c32001-26da-4dce-95e3-bdfad439e78f",
      "GeoPoint": {
        "Latitude": 25.07045,
        "Longitude": 121.608623
      },
      "ZipCode": "114",
      "City": "{\"List\":[{\"Value\":\"Taipei City\",\"Lang\":\"en-US\"},{\"Value\":\"台北市\",\"Lang\":\"zh-TW\"}]}",
      "District": "{\"List\":[{\"Lang\":\"en-US\", \"Value\":\"Neihu Dist.,\"}, {\"Lang\":\"zh-TW\", \"Value\":\"內湖區\"}]}",
      "Address": "{\"List\":[{\"Lang\":\"en-US\", \"Value\":\"No.66-3, Ln. 296, Sec. 6, Mincyuan E. Rd., Neihu Dist., Taipei City\"}, {\"Lang\":\"zh-TW\", \"Value\":\"台北市內湖區民權東路六段296巷66-3號\"}]}",
      "Type": 240,
      "Name": "{\"List\":[{\"Lang\":\"en-US\", \"Value\":\"NeiHuMingChun\"}, {\"Lang\":\"zh-TW\", \"Value\":\"內湖民權服務中心\"}]}",
      "Phone": "0981-277-100",
      "AvailableTime": "AP//wAAAAP//wAAAAP//wAAAAP//wAAAAP//wAAAAP//wAAAAAAAAAAA",
      "State": 1,
      "UpdateTime": "2018-08-20T02:34:39.353Z"
    },
    {
      "Id": "2db7b563-d279-4635-8ad5-bffe408c37e2",
      "GeoPoint": {
        "Latitude": 22.651917,
        "Longitude": 120.328224
      },
      "ZipCode": "807",
      "City": "{\"List\":[{\"Value\":\"Kaohsiung City\",\"Lang\":\"en-US\"},{\"Value\":\"高雄市\",\"Lang\":\"zh-TW\"}]}",
      "District": "{\"List\":[{\"Lang\":\"en-US\", \"Value\":\"Sanmin Dist.,\"}, {\"Lang\":\"zh-TW\", \"Value\":\"高雄市\"}]}",
      "Address": "{\"List\":[{\"Lang\":\"en-US\", \"Value\":\"No.422, Jiangong Rd., Sanmin Dist., Kaohsiung City\"}, {\"Lang\":\"zh-TW\", \"Value\":\"高雄市三民區建工路422號\"}]}",
      "Type": 48,
      "Name": "{\"List\":[{\"Lang\":\"en-US\", \"Value\":\"Sanmin Jiangong\"}, {\"Lang\":\"zh-TW\", \"Value\":\"三民建工服務中心\"}]}",
      "Phone": "07-3811336",
      "AvailableTime": "AP//wAAAAP//wAAAAP//wAAAAP//wAAAAP//wAAAAP//wAAAAAAAAAAA",
      "State": 1,
      "UpdateTime": "2018-08-24T04:45:19.003Z"
    },
    {
      "Id": "fcfcab46-6e00-479a-b112-c0eb0ba31c19",
      "GeoPoint": {
        "Latitude": 24.9565601,
        "Longitude": 121.2250228
      },
      "ZipCode": "320",
      "City": "{\"List\":[{\"Value\":\"Taoyuan City\",\"Lang\":\"en-US\"},{\"Value\":\"桃園市\",\"Lang\":\"zh-TW\"}]}",
      "District": "{\"List\":[{\"Lang\":\"en-US\", \"Value\":\"Zhongli Dist.\"}, {\"Lang\":\"zh-TW\", \"Value\":\"中壢區\"}]}",
      "Address": "{\"List\":[{\"Lang\":\"en-US\", \"Value\":\"No.71, Fuxing Rd., Zhongli Dist., Taoyuan City 320\"}, {\"Lang\":\"zh-TW\", \"Value\":\"桃園市中壢區復興路71號\"}]}",
      "Type": 48,
      "Name": "{\"List\":[{\"Lang\":\"en-US\", \"Value\":\"Zhongli Fuxing \"}, {\"Lang\":\"zh-TW\", \"Value\":\"中壢復興服務中心\"}]}",
      "Phone": "03-422-0822",
      "AvailableTime": "A///wAAAA///wAAAA///wAAAA///wAAAA///wAAAA///wAAAAAAAAAAA",
      "State": 1,
      "UpdateTime": "2017-03-15T02:27:10.59Z"
    },
    {
      "Id": "f8a9266e-0a2d-4312-8363-c3103bf2e619",
      "GeoPoint": {
        "Latitude": 24.9852253,
        "Longitude": 121.4504724
      },
      "ZipCode": "236",
      "City": "{\"List\":[{\"Value\":\"New Taipei City\",\"Lang\":\"en-US\"},{\"Value\":\"新北市\",\"Lang\":\"zh-TW\"}]}",
      "District": "{\"List\":[{\"Lang\":\"en-US\", \"Value\":\"Tucheng Dist.\"}, {\"Lang\":\"zh-TW\", \"Value\":\"土城區\"}]}",
      "Address": "{\"List\":[{\"Lang\":\"en-US\", \"Value\":\"1F., No.178, Yumin Rd., Tucheng Dist., New Taipei City 236\"}, {\"Lang\":\"zh-TW\", \"Value\":\"新北市土城區裕民路178號一樓\"}]}",
      "Type": 238,
      "Name": "{\"List\":[{\"Lang\":\"en-US\", \"Value\":\"Tucheng Yumin\"}, {\"Lang\":\"zh-TW\", \"Value\":\"土城裕民店\"}]}",
      "Phone": "02-22611316",
      "AvailableTime": "AP//wAAAAP//wAAAAP//wAAAAP//wAAAAP//wAAAAP//wAAAAP//wAAA",
      "State": 1,
      "UpdateTime": "2017-03-15T02:27:10.59Z"
    },
    {
      "Id": "53428993-99d0-48f0-82da-c31041418161",
      "GeoPoint": {
        "Latitude": 25.0441128,
        "Longitude": 121.5312496
      },
      "ZipCode": "100",
      "City": "{\"List\":[{\"Value\":\"Taipei City\",\"Lang\":\"en-US\"},{\"Value\":\"台北市\",\"Lang\":\"zh-TW\"}]}",
      "District": "{\"List\":[{\"Lang\":\"en-US\", \"Value\":\"Zhongzheng Dist.\"}, {\"Lang\":\"zh-TW\", \"Value\":\"中正區\"}]}",
      "Address": "{\"List\":[{\"Lang\":\"en-US\", \"Value\":\"1F, No.27, Sec. 1, Bade Rd., Zhongzheng Dist., Taipei City\"}, {\"Lang\":\"zh-TW\", \"Value\":\"台北市中正區八德路一段27號一樓\"}]}",
      "Type": 48,
      "Name": "{\"List\":[{\"Lang\":\"en-US\", \"Value\":\"Guanghua Bade Store\"}, {\"Lang\":\"zh-TW\", \"Value\":\"光華八德服務中心\"}]}",
      "Phone": "02-23957070",
      "AvailableTime": "A///wAAAA///wAAAA///wAAAA///wAAAA///wAAAA///wAAAAAAAAAAA",
      "State": 1,
      "UpdateTime": "2017-03-15T02:27:10.59Z"
    },
    {
      "Id": "56da626f-4097-4e43-9550-c3ef47b0b0ee",
      "GeoPoint": {
        "Latitude": 25.044545,
        "Longitude": 121.5614574
      },
      "ZipCode": "105",
      "City": "{\"List\":[{\"Value\":\"Taipei City\",\"Lang\":\"en-US\"},{\"Value\":\"台北市\",\"Lang\":\"zh-TW\"}]}",
      "District": "{\"List\":[{\"Lang\":\"en-US\", \"Value\":\"Songshan Dist.\"}, {\"Lang\":\"zh-TW\", \"Value\":\"松山區\"}]}",
      "Address": "{\"List\":[{\"Lang\":\"en-US\", \"Value\":\"2F., No.88, Sec. 2, Bade Rd., Songshan Dist.,Taipei City\"}, {\"Lang\":\"zh-TW\", \"Value\":\"台北市松山區菸廠路88號二樓\"}]}",
      "Type": 198,
      "Name": "{\"List\":[{\"Lang\":\"en-US\", \"Value\":\"Eslite Songyen Store\"}, {\"Lang\":\"zh-TW\", \"Value\":\"誠品松菸店\"}]}",
      "Phone": "02-66366060",
      "AvailableTime": "A///8AAAA///8AAAA///8AAAA///8AAAA///8AAAA///8AAAA///8AAA",
      "State": 2,
      "UpdateTime": "2017-03-15T02:27:10.59Z"
    },
    {
      "Id": "d3f61b4e-b824-4914-b12f-c6cb3ceb3741",
      "GeoPoint": {
        "Latitude": 24.149449,
        "Longitude": 120.665093
      },
      "ZipCode": "403",
      "City": "{\"List\":[{\"Value\":\"Taichung City\",\"Lang\":\"en-US\"},{\"Value\":\"台中市\",\"Lang\":\"zh-TW\"}]}",
      "District": "{\"List\":[{\"Lang\":\"en-US\", \"Value\":\"West Dist.,\"}, {\"Lang\":\"zh-TW\", \"Value\":\"西區\"}]}",
      "Address": "{\"List\":[{\"Lang\":\"en-US\", \"Value\":\"No. 534, Yingcai Road, West Dist., Taichung City\"}, {\"Lang\":\"zh-TW\", \"Value\":\"台中市西區英才路534號\"}]}",
      "Type": 206,
      "Name": "{\"List\":[{\"Lang\":\"en-US\", \"Value\":\"Xiqu Yingcai\"}, {\"Lang\":\"zh-TW\", \"Value\":\"西區英才門市\"}]}",
      "Phone": "04-2302-5288",
      "AvailableTime": "A///wAAAA///wAAAA///wAAAA///wAAAA///wAAAA///wAAAAAAAAAAA",
      "State": 1,
      "UpdateTime": "2018-08-20T02:34:40.223Z"
    },
    {
      "Id": "2e95dbad-31a1-49b1-8710-ca2f615db6aa",
      "GeoPoint": {
        "Latitude": 22.724758,
        "Longitude": 120.296868
      },
      "ZipCode": "811",
      "City": "{\"List\":[{\"Value\":\"Kaohsiung City\",\"Lang\":\"en-US\"},{\"Value\":\"高雄市\",\"Lang\":\"zh-TW\"}]}",
      "District": "{\"List\":[{\"Lang\":\"en-US\", \"Value\":\"Nanzi Dist.,\"}, {\"Lang\":\"zh-TW\", \"Value\":\"高雄市\"}]}",
      "Address": "{\"List\":[{\"Lang\":\"en-US\", \"Value\":\"No.65, Yiqun Rd., Nanzi Dist., Kaohsiung City\"}, {\"Lang\":\"zh-TW\", \"Value\":\"高雄市楠梓區益群路65號\"}]}",
      "Type": 48,
      "Name": "{\"List\":[{\"Lang\":\"en-US\", \"Value\":\"Nanzi  Yicyun\"}, {\"Lang\":\"zh-TW\", \"Value\":\"楠梓益群服務中心\"}]}",
      "Phone": "07-3601789",
      "AvailableTime": "AP//wAAAAP//wAAAAP//wAAAAP//wAAAAP//wAAAAP//wAAAAAAAAAAA",
      "State": 1,
      "UpdateTime": "2018-08-15T22:34:35.717Z"
    },
    {
      "Id": "778ae4f2-e744-4e82-9bc1-cd53e3c9b241",
      "GeoPoint": {
        "Latitude": 23.003016,
        "Longitude": 120.235488
      },
      "ZipCode": "710",
      "City": "{\"List\":[{\"Value\":\"Tainan City\",\"Lang\":\"en-US\"},{\"Value\":\"台南市\",\"Lang\":\"zh-TW\"}]}",
      "District": "{\"List\":[{\"Lang\":\"en-US\", \"Value\":\"Yongkang Dist.,\"}, {\"Lang\":\"zh-TW\", \"Value\":\"永康區\"}]}",
      "Address": "{\"List\":[{\"Lang\":\"en-US\", \"Value\":\"No.140, Zhonghua Rd., Yongkang Dist., Tainan City 710\"}, {\"Lang\":\"zh-TW\", \"Value\":\"台南市永康區中華路140號\"}]}",
      "Type": 206,
      "Name": "{\"List\":[{\"Lang\":\"en-US\", \"Value\":\"Yongkang Zhonghua\"}, {\"Lang\":\"zh-TW\", \"Value\":\"永康中華店\"}]}",
      "Phone": "0981-163-668",
      "AvailableTime": "AP//wAAAAP//wAAAAP//wAAAAP//wAAAAP//wAAAAP//wAAAAP//wAAA",
      "State": 1,
      "UpdateTime": "2018-08-20T07:34:36.083Z"
    },
    {
      "Id": "5758914c-943f-4a25-a49e-cd9f392a1268",
      "GeoPoint": {
        "Latitude": 25.01434,
        "Longitude": 121.305117
      },
      "ZipCode": "330",
      "City": "{\"List\":[{\"Value\":\"Taoyuan City\",\"Lang\":\"en-US\"},{\"Value\":\"桃園市\",\"Lang\":\"zh-TW\"}]}",
      "District": "{\"List\":[{\"Lang\":\"en-US\", \"Value\":\"Taoyuan Dist.,\"}, {\"Lang\":\"zh-TW\", \"Value\":\"桃園區\"}]}",
      "Address": "{\"List\":[{\"Lang\":\"en-US\", \"Value\":\"No.163, Sec. 1, Daxing W. Rd., Taoyuan Dist., Taoyuan City\"}, {\"Lang\":\"zh-TW\", \"Value\":\"桃園市桃園區新埔里大興西路一段163號\"}]}",
      "Type": 206,
      "Name": "{\"List\":[{\"Lang\":\"en-US\", \"Value\":\"TaoYuan Yi-wen Store\"}, {\"Lang\":\"zh-TW\", \"Value\":\"桃園藝文店\"}]}",
      "Phone": "0981-007-866",
      "AvailableTime": "AP//wAAAAP//wAAAAP//wAAAAP//wAAAAP//wAAAAP//wAAAAP//wAAA",
      "State": 1,
      "UpdateTime": "2018-08-19T01:34:36.577Z"
    },
    {
      "Id": "f24e491f-3918-4fcd-be6a-d113a290b15b",
      "GeoPoint": {
        "Latitude": 23.9753117,
        "Longitude": 121.6002447
      },
      "ZipCode": "970",
      "City": "{\"List\":[{\"Value\":\"Hualien County\",\"Lang\":\"en-US\"},{\"Value\":\"花蓮縣\",\"Lang\":\"zh-TW\"}]}",
      "District": "{\"List\":[{\"Lang\":\"en-US\", \"Value\":\"Hualien City\"}, {\"Lang\":\"zh-TW\", \"Value\":\"花蓮市\"}]}",
      "Address": "{\"List\":[{\"Lang\":\"en-US\", \"Value\":\"No.266, Zhonghua Rd., Hualien City, Hualien County\"}, {\"Lang\":\"zh-TW\", \"Value\":\"花蓮市中華路266號.266-1號\"}]}",
      "Type": 206,
      "Name": "{\"List\":[{\"Lang\":\"en-US\", \"Value\":\"Hualien Zhonghua\"}, {\"Lang\":\"zh-TW\", \"Value\":\"花蓮中華門市\"}]}",
      "Phone": "03-8362929",
      "AvailableTime": "AP//wAAAAP//wAAAAP//wAAAAP//wAAAAP//wAAAAP//wAAAAP//wAAA",
      "State": 1,
      "UpdateTime": "2018-09-01T00:45:21.753Z"
    },
    {
      "Id": "3070fd28-8a68-42d0-8812-d4d54d4cb476",
      "GeoPoint": {
        "Latitude": 25.105171,
        "Longitude": 121.52853
      },
      "ZipCode": "111",
      "City": "{\"List\":[{\"Value\":\"Taipei City\",\"Lang\":\"en-US\"},{\"Value\":\"台北市\",\"Lang\":\"zh-TW\"}]}",
      "District": "{\"List\":[{\"Lang\":\"en-US\", \"Value\":\"Shilin Dist.,\"}, {\"Lang\":\"zh-TW\", \"Value\":\"台北市\"}]}",
      "Address": "{\"List\":[{\"Lang\":\"en-US\", \"Value\":\"No.101, Sec. 1, Zhongcheng Rd., Shilin Dist., Taipei City\"}, {\"Lang\":\"zh-TW\", \"Value\":\"台北市士林區忠誠路一段101號\"}]}",
      "Type": 206,
      "Name": "{\"List\":[{\"Lang\":\"en-US\", \"Value\":\"Tainmu Zhongcheng\"}, {\"Lang\":\"zh-TW\", \"Value\":\"天母忠誠門市\"}]}",
      "Phone": "02-8866-6848",
      "AvailableTime": "AP//wAAAAP//wAAAAP//wAAAAP//wAAAAP//wAAAAP//wAAAAP//wAAA",
      "State": 1,
      "UpdateTime": "2018-08-20T06:34:37.24Z"
    },
    {
      "Id": "08b4f0a8-ccab-4c3a-b9ba-d7f62e357f1d",
      "GeoPoint": {
        "Latitude": 22.624197,
        "Longitude": 120.301248
      },
      "ZipCode": "800",
      "City": "{\"List\":[{\"Value\":\"Kaohsiung City\",\"Lang\":\"en-US\"},{\"Value\":\"高雄市\",\"Lang\":\"zh-TW\"}]}",
      "District": "{\"List\":[{\"Lang\":\"en-US\", \"Value\":\"Xinxing Dist.,\"}, {\"Lang\":\"zh-TW\", \"Value\":\"新興區\"}]}",
      "Address": "{\"List\":[{\"Lang\":\"en-US\", \"Value\":\"No.2, Zhongshan 1st Rd., Xinxing Dist., Kaohsiung City 800\"}, {\"Lang\":\"zh-TW\", \"Value\":\"高雄市新興區中山一路2號\"}]}",
      "Type": 48,
      "Name": "{\"List\":[{\"Lang\":\"en-US\", \"Value\":\"Kaohsiung Zhongshan\"}, {\"Lang\":\"zh-TW\", \"Value\":\"高雄中山服務中心\"}]}",
      "Phone": "0981079333",
      "AvailableTime": "AP//wAAAAP//wAAAAP//wAAAAP//wAAAAP//wAAAAP//wAAAAP//wAAA",
      "State": 1,
      "UpdateTime": "2017-03-15T02:27:10.59Z"
    },
    {
      "Id": "aeb3fcc7-f9ca-4937-9e68-d977c3261178",
      "GeoPoint": {
        "Latitude": 24.1513113,
        "Longitude": 120.6827384
      },
      "ZipCode": "404",
      "City": "{\"List\":[{\"Value\":\"Taichung City\",\"Lang\":\"en-US\"},{\"Value\":\"台中市\",\"Lang\":\"zh-TW\"}]}",
      "District": "{\"List\":[{\"Lang\":\"en-US\", \"Value\":\"North Dist.\"}, {\"Lang\":\"zh-TW\", \"Value\":\"北區\"}]}",
      "Address": "{\"List\":[{\"Lang\":\"en-US\", \"Value\":\"1F., No.146, Sec. 3, Sanmin Rd., North Dist., Taichung City 404\"}, {\"Lang\":\"zh-TW\", \"Value\":\"台中市北區三民路三段146號\"}]}",
      "Type": 198,
      "Name": "{\"List\":[{\"Lang\":\"en-US\", \"Value\":\"Taichung Sanmin\"}, {\"Lang\":\"zh-TW\", \"Value\":\"台中三民店\"}]}",
      "Phone": "04-22216689",
      "AvailableTime": "A///4AAAA///4AAAA///4AAAA///4AAAA///4AAAA///4AAAA///4AAA",
      "State": 1,
      "UpdateTime": "2017-03-15T02:27:10.59Z"
    },
    {
      "Id": "c026c2fb-c34d-4f96-a37f-dd779d0b8e14",
      "GeoPoint": {
        "Latitude": 25.08896,
        "Longitude": 121.486458
      },
      "ZipCode": "247",
      "City": "{\"List\":[{\"Value\":\"New Taipei City\",\"Lang\":\"en-US\"},{\"Value\":\"新北市\",\"Lang\":\"zh-TW\"}]}",
      "District": "{\"List\":[{\"Lang\":\"en-US\", \"Value\":\"Sanchong Dist.,\"}, {\"Lang\":\"zh-TW\", \"Value\":\"新北市\"}]}",
      "Address": "{\"List\":[{\"Lang\":\"en-US\", \"Value\":\"No.186, Jixian Rd., Sanchong Dist., New Taipei City\"}, {\"Lang\":\"zh-TW\", \"Value\":\"新北市三重區集賢路186-5號\"}]}",
      "Type": 206,
      "Name": "{\"List\":[{\"Lang\":\"en-US\", \"Value\":\"Sanchong Jixian\"}, {\"Lang\":\"zh-TW\", \"Value\":\"三重集賢門市\"}]}",
      "Phone": "02-2285-5556",
      "AvailableTime": "AP//wAAAAP//wAAAAP//wAAAAP//wAAAAP//wAAAAP//wAAAAP//wAAA",
      "State": 1,
      "UpdateTime": "2018-08-17T23:34:39.307Z"
    },
    {
      "Id": "45686cd9-9f79-4b6f-ace8-deca84a6f9a8",
      "GeoPoint": {
        "Latitude": 24.6864537,
        "Longitude": 120.9046329
      },
      "ZipCode": "351",
      "City": "{\"List\":[{\"Value\":\"Miaoli County\",\"Lang\":\"en-US\"},{\"Value\":\"苗栗縣\",\"Lang\":\"zh-TW\"}]}",
      "District": "{\"List\":[{\"Lang\":\"en-US\", \"Value\":\"Toufen City,\"}, {\"Lang\":\"zh-TW\", \"Value\":\"頭份市\"}]}",
      "Address": "{\"List\":[{\"Lang\":\"en-US\", \"Value\":\"No.230, Zihciang Rd., Toufen City, Miaoli County 351\"}, {\"Lang\":\"zh-TW\", \"Value\":\"苗栗縣頭份市自強路230號\"}]}",
      "Type": 254,
      "Name": "{\"List\":[{\"Lang\":\"en-US\", \"Value\":\"TouFen Service Center\"}, {\"Lang\":\"zh-TW\", \"Value\":\"頭份自強服務中心\"}]}",
      "Phone": "0800365996",
      "AvailableTime": "AP//wAAAAP//wAAAAP//wAAAAP//wAAAAP//wAAAAP//wAAAAP//wAAA",
      "State": 1,
      "UpdateTime": "2017-04-05T02:43:46.717Z"
    },
    {
      "Id": "557a6b1e-475d-4557-9ad8-e1e92929900f",
      "GeoPoint": {
        "Latitude": 25.032885,
        "Longitude": 121.470615
      },
      "ZipCode": "220",
      "City": "{\"List\":[{\"Value\":\"New Taipei City\",\"Lang\":\"en-US\"},{\"Value\":\"新北市\",\"Lang\":\"zh-TW\"}]}",
      "District": "{\"List\":[{\"Lang\":\"en-US\", \"Value\":\"Banqiao Dist.,\"}, {\"Lang\":\"zh-TW\", \"Value\":\"板橋區\"}]}",
      "Address": "{\"List\":[{\"Lang\":\"en-US\", \"Value\":\"No. 282, Section 2, Changjiang Road, Banqiao Dist., New Taipei City\"}, {\"Lang\":\"zh-TW\", \"Value\":\"新北市板橋區長江路二段282號\"}]}",
      "Type": 240,
      "Name": "{\"List\":[{\"Lang\":\"en-US\", \"Value\":\"Banqiao Changjiang service center\"}, {\"Lang\":\"zh-TW\", \"Value\":\"板橋長江服務中心\"}]}",
      "Phone": "02-2258-7227",
      "AvailableTime": "AP//wAAAAP//wAAAAP//wAAAAP//wAAAAP//wAAAAP//wAAAAAAAAAAA",
      "State": 1,
      "UpdateTime": "2018-08-20T02:34:39.643Z"
    },
    {
      "Id": "bd83d057-47bd-4dd7-8e3d-e2ffa47b9cb2",
      "GeoPoint": {
        "Latitude": 25.0630894,
        "Longitude": 121.4974433
      },
      "ZipCode": "241",
      "City": "{\"List\":[{\"Value\":\"New Taipei City\",\"Lang\":\"en-US\"},{\"Value\":\"新北市\",\"Lang\":\"zh-TW\"}]}",
      "District": "{\"List\":[{\"Lang\":\"en-US\", \"Value\":\"Sanchong Dist.\"}, {\"Lang\":\"zh-TW\", \"Value\":\"三重區\"}]}",
      "Address": "{\"List\":[{\"Lang\":\"en-US\", \"Value\":\"No.24, Zhengyi N. Rd., Sanchong Dist., New Taipei City\"}, {\"Lang\":\"zh-TW\", \"Value\":\"新北市三重區正義北路24號\"}]}",
      "Type": 206,
      "Name": "{\"List\":[{\"Lang\":\"en-US\", \"Value\":\"Sanchong Zhengyi Store\"}, {\"Lang\":\"zh-TW\", \"Value\":\"三重正義店\"}]}",
      "Phone": "02-29892020",
      "AvailableTime": "A///wAAAA///wAAAA///wAAAA///wAAAA///wAAAA///wAAAA///wAAA",
      "State": 1,
      "UpdateTime": "2017-03-15T02:27:10.59Z"
    },
    {
      "Id": "3155feb3-5a66-4364-a7f9-e301312794fa",
      "GeoPoint": {
        "Latitude": 22.987919,
        "Longitude": 120.186581
      },
      "ZipCode": "708",
      "City": "{\"List\":[{\"Value\":\"Tainan City\",\"Lang\":\"en-US\"},{\"Value\":\"台南市\",\"Lang\":\"zh-TW\"}]}",
      "District": "{\"List\":[{\"Lang\":\"en-US\", \"Value\":\"Anping Dist.,\"}, {\"Lang\":\"zh-TW\", \"Value\":\"台南市\"}]}",
      "Address": "{\"List\":[{\"Lang\":\"en-US\", \"Value\":\"No.59, Sec. 2, Zhonghua W. Rd., Anping Dist., Tainan City\"}, {\"Lang\":\"zh-TW\", \"Value\":\"台南市安平區中華西路二段59號\"}]}",
      "Type": 206,
      "Name": "{\"List\":[{\"Lang\":\"en-US\", \"Value\":\"Anping Zhonghua\"}, {\"Lang\":\"zh-TW\", \"Value\":\"安平中華門市\"}]}",
      "Phone": "06-2959729",
      "AvailableTime": "AP//wAAAAP//wAAAAP//wAAAAP//wAAAAP//wAAAAP//wAAAAP//wAAA",
      "State": 1,
      "UpdateTime": "2018-08-16T02:34:33.857Z"
    },
    {
      "Id": "b5b8629b-25b4-4908-a00b-e3d86ba5fcac",
      "GeoPoint": {
        "Latitude": 25.0498814,
        "Longitude": 121.5751152
      },
      "ZipCode": "105",
      "City": "{\"List\":[{\"Value\":\"Taipei City\",\"Lang\":\"en-US\"},{\"Value\":\"台北市\",\"Lang\":\"zh-TW\"}]}",
      "District": "{\"List\":[{\"Lang\":\"en-US\", \"Value\":\"Songshan Dist.\"}, {\"Lang\":\"zh-TW\", \"Value\":\"松山區\"}]}",
      "Address": "{\"List\":[{\"Lang\":\"en-US\", \"Value\":\"No. 650, Bade Rd. Sec.4, Songshan Dist. Taipei City\"}, {\"Lang\":\"zh-TW\", \"Value\":\"臺北市松山區八德路四段650號\"}]}",
      "Type": 200,
      "Name": "{\"List\":[{\"Lang\":\"en-US\", \"Value\":\"Songshan Raohe Service Center\"}, {\"Lang\":\"zh-TW\", \"Value\":\"松山饒河店\"}]}",
      "Phone": "02-27472020",
      "AvailableTime": "AD//wAAAAD//wAAAAD//wAAAAD//wAAAAD//wAAAAD//wAAAAD//wAAA",
      "State": 1,
      "UpdateTime": "2017-03-15T02:27:10.59Z"
    },
    {
      "Id": "bd06ccda-7f08-4930-9433-e68664a58c52",
      "GeoPoint": {
        "Latitude": 25.052408,
        "Longitude": 121.489388
      },
      "ZipCode": "247",
      "City": "{\"List\":[{\"Value\":\"New Taipei City\",\"Lang\":\"en-US\"},{\"Value\":\"新北市\",\"Lang\":\"zh-TW\"}]}",
      "District": "{\"List\":[{\"Lang\":\"en-US\", \"Value\":\"Sanchong Dist.,\"}, {\"Lang\":\"zh-TW\", \"Value\":\"新北市\"}]}",
      "Address": "{\"List\":[{\"Lang\":\"en-US\", \"Value\":\"No.39, Jicheng Rd., Sanchong Dist., New Taipei City\"}, {\"Lang\":\"zh-TW\", \"Value\":\"新北市三重區集成路39號\"}]}",
      "Type": 240,
      "Name": "{\"List\":[{\"Lang\":\"en-US\", \"Value\":\"Sanchong Jicheng\"}, {\"Lang\":\"zh-TW\", \"Value\":\"三重集成服務中心\"}]}",
      "Phone": "02-2977-5015",
      "AvailableTime": "AP//wAAAAP//wAAAAP//wAAAAP//wAAAAP//wAAAAP//wAAAAP//wAAA",
      "State": 0,
      "UpdateTime": "2018-08-19T00:34:37.193Z"
    },
    {
      "Id": "1281aeaf-2cbd-4ef1-b99c-e96577dfaedb",
      "GeoPoint": {
        "Latitude": 25.0493143,
        "Longitude": 121.4466685
      },
      "ZipCode": "242",
      "City": "{\"List\":[{\"Value\":\"New Taipei City\",\"Lang\":\"en-US\"},{\"Value\":\"新北市\",\"Lang\":\"zh-TW\"}]}",
      "District": "{\"List\":[{\"Lang\":\"en-US\", \"Value\":\"Xinzhuang Dist.\"}, {\"Lang\":\"zh-TW\", \"Value\":\"新莊區\"}]}",
      "Address": "{\"List\":[{\"Lang\":\"en-US\", \"Value\":\"1F., No.728, Xingfu Rd., Xinzhuang Dist., New Taipei City 242\"}, {\"Lang\":\"zh-TW\", \"Value\":\"新北市新莊區幸福路728號一樓\"}]}",
      "Type": 238,
      "Name": "{\"List\":[{\"Lang\":\"en-US\", \"Value\":\"Xinzhuang Xingfu\"}, {\"Lang\":\"zh-TW\", \"Value\":\"新莊幸福店\"}]}",
      "Phone": "02-29918288",
      "AvailableTime": "AP//8AAAAP//8AAAAP//8AAAAP//8AAAAP//8AAAAP//8AAAAP//8AAA",
      "State": 1,
      "UpdateTime": "2017-03-15T02:27:10.59Z"
    },
    {
      "Id": "a86e7006-0dca-4c95-b485-eab66cb70a24",
      "GeoPoint": {
        "Latitude": 24.9493347,
        "Longitude": 121.2975593
      },
      "ZipCode": "334",
      "City": "{\"List\":[{\"Value\":\"Taoyuan City\",\"Lang\":\"en-US\"},{\"Value\":\"桃園市\",\"Lang\":\"zh-TW\"}]}",
      "District": "{\"List\":[{\"Lang\":\"en-US\", \"Value\":\"Bade Dist.,\"}, {\"Lang\":\"zh-TW\", \"Value\":\"八德區\"}]}",
      "Address": "{\"List\":[{\"Lang\":\"en-US\", \"Value\":\"No.312, Sec. 2, Jieshou Rd., Bade Dist., Taoyuan City 334\"}, {\"Lang\":\"zh-TW\", \"Value\":\"桃園市八德區介壽路二段312號\"}]}",
      "Type": 206,
      "Name": "{\"List\":[{\"Lang\":\"en-US\", \"Value\":\"Taoyuan Bade\"}, {\"Lang\":\"zh-TW\", \"Value\":\"桃園八德店\"}]}",
      "Phone": "0981158668",
      "AvailableTime": "A///wAAAA///wAAAA///wAAAA///wAAAA///wAAAA///wAAAA///wAAA",
      "State": 1,
      "UpdateTime": "2017-04-28T02:18:01.317Z"
    },
    {
      "Id": "58653f26-3d35-4b43-9535-eaf524db220f",
      "GeoPoint": {
        "Latitude": 25.0438099,
        "Longitude": 121.5039293
      },
      "ZipCode": "108",
      "City": "{\"List\":[{\"Value\":\"Taipei City\",\"Lang\":\"en-US\"},{\"Value\":\"台北市\",\"Lang\":\"zh-TW\"}]}",
      "District": "{\"List\":[{\"Lang\":\"en-US\", \"Value\":\"Wanhua Dist.\"}, {\"Lang\":\"zh-TW\", \"Value\":\"萬華區\"}]}",
      "Address": "{\"List\":[{\"Lang\":\"en-US\", \"Value\":\"No.62, Xining S. Rd., Wanhua Dist., Taipei City 108\"}, {\"Lang\":\"zh-TW\", \"Value\":\"臺北市萬華區西寧南路62號\"}]}",
      "Type": 206,
      "Name": "{\"List\":[{\"Lang\":\"en-US\", \"Value\":\"Ximen Xining Store\"}, {\"Lang\":\"zh-TW\", \"Value\":\"西門西寧店\"}]}",
      "Phone": "02-23317070",
      "AvailableTime": "AD//8AAAAD//8AAAAD//8AAAAD//8AAAAD//8AAAAD//8AAAAD//8AAA",
      "State": 2,
      "UpdateTime": "2017-03-15T02:27:10.59Z"
    },
    {
      "Id": "ba078bb8-8e9c-4b80-a136-eba4935be488",
      "GeoPoint": {
        "Latitude": 25.046876,
        "Longitude": 121.531555
      },
      "ZipCode": "104",
      "City": "{\"List\":[{\"Value\":\"Taipei City\",\"Lang\":\"en-US\"},{\"Value\":\"台北市\",\"Lang\":\"zh-TW\"}]}",
      "District": "{\"List\":[{\"Lang\":\"en-US\", \"Value\":\"Zhongshan Dist.,\"}, {\"Lang\":\"zh-TW\", \"Value\":\"台北市\"}]}",
      "Address": "{\"List\":[{\"Lang\":\"en-US\", \"Value\":\"1F., No.23, Sec. 1, Xinsheng N. Rd., Zhongshan Dist., Taipei City\"}, {\"Lang\":\"zh-TW\", \"Value\":\"台北市中山區新生北路一段23號一樓\"}]}",
      "Type": 240,
      "Name": "{\"List\":[{\"Lang\":\"en-US\", \"Value\":\"Xinsheng Shiming\"}, {\"Lang\":\"zh-TW\", \"Value\":\"新生市民服務中心\"}]}",
      "Phone": "02-25371764",
      "AvailableTime": "AP//wAAAAP//wAAAAP//wAAAAP//wAAAAP//wAAAAP//wAAAAAAAAAAA",
      "State": 1,
      "UpdateTime": "2018-08-15T22:34:35.85Z"
    },
    {
      "Id": "68b3c577-78c2-4bc2-9ccf-eccbef49dea2",
      "GeoPoint": {
        "Latitude": 25.0708718,
        "Longitude": 121.5165513
      },
      "ZipCode": "103",
      "City": "{\"List\":[{\"Value\":\"Taipei City\",\"Lang\":\"en-US\"},{\"Value\":\"台北市\",\"Lang\":\"zh-TW\"}]}",
      "District": "{\"List\":[{\"Lang\":\"en-US\", \"Value\":\"Datong Dist.\"}, {\"Lang\":\"zh-TW\", \"Value\":\"大同區\"}]}",
      "Address": "{\"List\":[{\"Lang\":\"en-US\", \"Value\":\"1st floor, No.237, Sec. 3, Chengde Rd., Datong Dist., Taipei City 103\"}, {\"Lang\":\"zh-TW\", \"Value\":\"臺北市大同區承德路三段237號1樓\"}]}",
      "Type": 48,
      "Name": "{\"List\":[{\"Lang\":\"en-US\", \"Value\":\"Yuanshan Service Center\"}, {\"Lang\":\"zh-TW\", \"Value\":\"圓山承德服務中心\"}]}",
      "Phone": "0981066333",
      "AvailableTime": "A///wAAAA///wAAAA///wAAAA///wAAAA///wAAAA///wAAAAAAAAAAA",
      "State": 1,
      "UpdateTime": "2017-07-12T05:51:40.867Z"
    },
    {
      "Id": "72238efc-b698-4fe3-9b29-ef8d65cf0da6",
      "GeoPoint": {
        "Latitude": 24.98153,
        "Longitude": 121.560216
      },
      "ZipCode": "116",
      "City": "{\"List\":[{\"Value\":\"Taipei City\",\"Lang\":\"en-US\"},{\"Value\":\"台北市\",\"Lang\":\"zh-TW\"}]}",
      "District": "{\"List\":[{\"Lang\":\"en-US\", \"Value\":\"Wunshan Dist.,\"}, {\"Lang\":\"zh-TW\", \"Value\":\"台北市\"}]}",
      "Address": "{\"List\":[{\"Lang\":\"en-US\", \"Value\":\"No.187, Sec. 3, Musin Rd., Wunshan Dist., Taipei City\"}, {\"Lang\":\"zh-TW\", \"Value\":\"台北市文山區木新路三段187號\"}]}",
      "Type": 206,
      "Name": "{\"List\":[{\"Lang\":\"en-US\", \"Value\":\"Wenshan Muxin\"}, {\"Lang\":\"zh-TW\", \"Value\":\"文山木新門市\"}]}",
      "Phone": "02-8661-6066",
      "AvailableTime": "AP//wAAAAP//wAAAAP//wAAAAP//wAAAAP//wAAAAP//wAAAAP//wAAA",
      "State": 1,
      "UpdateTime": "2018-08-17T23:34:38.97Z"
    },
    {
      "Id": "192e93ee-5286-4927-b46b-f0abb4d673df",
      "GeoPoint": {
        "Latitude": 22.674148,
        "Longitude": 120.490622
      },
      "ZipCode": "900",
      "City": "{\"List\":[{\"Value\":\"Pingtung County\",\"Lang\":\"en-US\"},{\"Value\":\"屏東縣\",\"Lang\":\"zh-TW\"}]}",
      "District": "{\"List\":[{\"Lang\":\"en-US\", \"Value\":\"Pingtung City\"}, {\"Lang\":\"zh-TW\", \"Value\":\"屏東市\"}]}",
      "Address": "{\"List\":[{\"Lang\":\"en-US\", \"Value\":\"No. 80, Zhonghua Road, Pingtung City Pingtung County\"}, {\"Lang\":\"zh-TW\", \"Value\":\"屏東縣屏東市中華路80號\"}]}",
      "Type": 48,
      "Name": "{\"List\":[{\"Lang\":\"en-US\", \"Value\":\"Pingtong Gongyuan\"}, {\"Lang\":\"zh-TW\", \"Value\":\"屏東公園服務中心\"}]}",
      "Phone": "08-733-8868",
      "AvailableTime": "AP//wAAAAP//wAAAAP//wAAAAP//wAAAAP//wAAAAP//wAAAAAAAAAAA",
      "State": 1,
      "UpdateTime": "2018-08-20T02:34:39.217Z"
    },
    {
      "Id": "9384888b-8a80-4406-8ae2-f24e2bc61608",
      "GeoPoint": {
        "Latitude": 25.0708718,
        "Longitude": 121.5165513
      },
      "ZipCode": "103",
      "City": "{\"List\":[{\"Value\":\"Taipei City\",\"Lang\":\"en-US\"},{\"Value\":\"台北市\",\"Lang\":\"zh-TW\"}]}",
      "District": "{\"List\":[{\"Lang\":\"en-US\", \"Value\":\"Datong Dist.\"}, {\"Lang\":\"zh-TW\", \"Value\":\"大同區\"}]}",
      "Address": "{\"List\":[{\"Lang\":\"en-US\", \"Value\":\"1st floor, No.237, Sec. 3, Chengde Rd., Datong Dist., Taipei City 103\"}, {\"Lang\":\"zh-TW\", \"Value\":\"臺北市大同區承德路三段237號1樓\"}]}",
      "Type": 200,
      "Name": "{\"List\":[{\"Lang\":\"en-US\", \"Value\":\"Yuanshan Service Center\"}, {\"Lang\":\"zh-TW\", \"Value\":\"圓山承德店\"}]}",
      "Phone": "0981066333",
      "AvailableTime": "AH//4AAAAH//4AAAAH//4AAAAH//4AAAAH//4AAAAH//4AAAAH//4AAA",
      "State": 1,
      "UpdateTime": "2017-07-12T05:51:40.867Z"
    },
    {
      "Id": "e3173693-75a9-4e32-b96a-f38a8ef0275f",
      "GeoPoint": {
        "Latitude": 24.817287,
        "Longitude": 121.019858
      },
      "ZipCode": "302",
      "City": "{\"List\":[{\"Value\":\"Hsinchu County\",\"Lang\":\"en-US\"},{\"Value\":\"新竹縣\",\"Lang\":\"zh-TW\"}]}",
      "District": "{\"List\":[{\"Lang\":\"en-US\", \"Value\":\"Zhubei City\"}, {\"Lang\":\"zh-TW\", \"Value\":\"竹北市\"}]}",
      "Address": "{\"List\":[{\"Lang\":\"en-US\", \"Value\":\"Zhubei City, Hsinchu County\"}, {\"Lang\":\"zh-TW\", \"Value\":\"新竹縣竹北市成功八路207號\"}]}",
      "Type": 240,
      "Name": "{\"List\":[{\"Lang\":\"en-US\", \"Value\":\"Chupei Chenggong\"}, {\"Lang\":\"zh-TW\", \"Value\":\"竹北成功服務中心\"}]}",
      "Phone": "03-668-8968",
      "AvailableTime": "AP//wAAAAP//wAAAAP//wAAAAP//wAAAAP//wAAAAP//wAAAAAAAAAAA",
      "State": 1,
      "UpdateTime": "2018-08-19T00:34:37.237Z"
    },
    {
      "Id": "f1331470-f18a-4f10-a040-f45328389d4d",
      "GeoPoint": {
        "Latitude": 24.9909735,
        "Longitude": 121.3107104
      },
      "ZipCode": "330",
      "City": "{\"List\":[{\"Value\":\"Taoyuan City\",\"Lang\":\"en-US\"},{\"Value\":\"桃園市\",\"Lang\":\"zh-TW\"}]}",
      "District": "{\"List\":[{\"Lang\":\"en-US\", \"Value\":\"Taoyuan Dist.\"}, {\"Lang\":\"zh-TW\", \"Value\":\"桃園區\"}]}",
      "Address": "{\"List\":[{\"Lang\":\"en-US\", \"Value\":\"No.50, Zhongzheng Rd., Taoyuan Dist., Taoyuan City 330\"}, {\"Lang\":\"zh-TW\", \"Value\":\"桃園市桃園區中正路50號一樓\"}]}",
      "Type": 238,
      "Name": "{\"List\":[{\"Lang\":\"en-US\", \"Value\":\"Taoyuan\"}, {\"Lang\":\"zh-TW\", \"Value\":\"桃園中正店\"}]}",
      "Phone": "03-3350733",
      "AvailableTime": "A///wAAAA///wAAAA///wAAAA///wAAAA///wAAAA///wAAAA///wAAA",
      "State": 1,
      "UpdateTime": "2017-03-15T02:27:10.59Z"
    },
    {
      "Id": "b0ca9dc2-852d-415d-a672-f65a51b900c7",
      "GeoPoint": {
        "Latitude": 23.9753117,
        "Longitude": 121.6002447
      },
      "ZipCode": "970",
      "City": "{\"List\":[{\"Value\":\"Hualien County\",\"Lang\":\"en-US\"},{\"Value\":\"花蓮縣\",\"Lang\":\"zh-TW\"}]}",
      "District": "{\"List\":[{\"Lang\":\"en-US\", \"Value\":\"Hualien City\"}, {\"Lang\":\"zh-TW\", \"Value\":\"花蓮市\"}]}",
      "Address": "{\"List\":[{\"Lang\":\"en-US\", \"Value\":\"No.266, Zhonghua Rd., Hualien City, Hualien County\"}, {\"Lang\":\"zh-TW\", \"Value\":\"花蓮市中華路266號.266-1號\"}]}",
      "Type": 48,
      "Name": "{\"List\":[{\"Lang\":\"en-US\", \"Value\":\"Hualien Zhonghua\"}, {\"Lang\":\"zh-TW\", \"Value\":\"花蓮中華服務中心\"}]}",
      "Phone": "03-8362929",
      "AvailableTime": "AP//wAAAAP//wAAAAP//wAAAAP//wAAAAP//wAAAAP//wAAAAAAAAAAA",
      "State": 1,
      "UpdateTime": "2018-09-01T00:45:21.713Z"
    },
    {
      "Id": "cea5d081-259c-4b53-8e65-f746b92af9b7",
      "GeoPoint": {
        "Latitude": 23.4693,
        "Longitude": 120.454721
      },
      "ZipCode": "600",
      "City": "{\"List\":[{\"Value\":\"Chiayi City\",\"Lang\":\"en-US\"},{\"Value\":\"嘉義市\",\"Lang\":\"zh-TW\"}]}\t",
      "District": "{\"List\":[{\"Lang\":\"en-US\", \"Value\":\"East Dist.,\"}, {\"Lang\":\"zh-TW\", \"Value\":\"東區\"}]}",
      "Address": "{\"List\":[{\"Lang\":\"en-US\", \"Value\":\"No. 18, Xingye East Road, East Dist., Chiayi City\"}, {\"Lang\":\"zh-TW\", \"Value\":\"嘉義市東區興業東路18號\"}]}",
      "Type": 48,
      "Name": "{\"List\":[{\"Lang\":\"en-US\", \"Value\":\"Jiayi Xingyedong\"}, {\"Lang\":\"zh-TW\", \"Value\":\"嘉義興業東服務中心\"}]}",
      "Phone": "05-216-8222",
      "AvailableTime": "AP//wAAAAP//wAAAAP//wAAAAP//wAAAAP//wAAAAP//wAAAAAAAAAAA",
      "State": 1,
      "UpdateTime": "2018-08-20T06:34:37.1Z"
    },
    {
      "Id": "64ae6d81-d752-452d-a17f-fb1736baa844",
      "GeoPoint": {
        "Latitude": 25.00718,
        "Longitude": 121.460364
      },
      "ZipCode": "220",
      "City": "{\"List\":[{\"Value\":\"New Taipei City\",\"Lang\":\"en-US\"},{\"Value\":\"新北市\",\"Lang\":\"zh-TW\"}]}",
      "District": "{\"List\":[{\"Lang\":\"en-US\", \"Value\":\"Banqiao Dist.\"}, {\"Lang\":\"zh-TW\", \"Value\":\"板橋區\"}]}",
      "Address": "{\"List\":[{\"Lang\":\"en-US\", \"Value\":\"1F., No.26, Guanqian E. Rd., Banqiao Dist., New Taipei City\"}, {\"Lang\":\"zh-TW\", \"Value\":\"新北市板橋區景星里館前東路26號 一樓\"}]}",
      "Type": 48,
      "Name": "{\"List\":[{\"Lang\":\"en-US\", \"Value\":\"Banqiao Guanqian Store\"}, {\"Lang\":\"zh-TW\", \"Value\":\"板橋館前服務中心\"}]}",
      "Phone": "02-29641010",
      "AvailableTime": "Af//4AAAAf//4AAAAf//4AAAAf//4AAAAf//4AAAAf//4AAAAf//4AAA",
      "State": 1,
      "UpdateTime": "2017-03-15T02:27:10.59Z"
    },
    {
      "Id": "72987ac4-e0ce-4f84-a08a-ff8312e716c0",
      "GeoPoint": {
        "Latitude": 25.049624,
        "Longitude": 121.579231
      },
      "ZipCode": "105",
      "City": "{\"List\":[{\"Value\":\"Taipei City\",\"Lang\":\"en-US\"},{\"Value\":\"台北市\",\"Lang\":\"zh-TW\"}]}",
      "District": "{\"List\":[{\"Lang\":\"en-US\", \"Value\":\"Songshan Dist.,\"}, {\"Lang\":\"zh-TW\", \"Value\":\"松山區\"}]}",
      "Address": "{\"List\":[{\"Lang\":\"en-US\", \"Value\":\"No.131, Sec. 6, Civic Blvd. Songshan Dist., Taipei City 105\"}, {\"Lang\":\"zh-TW\", \"Value\":\"台北市松山區市民大道六段131號\"}]}",
      "Type": 206,
      "Name": "{\"List\":[{\"Lang\":\"en-US\", \"Value\":\"Songshan CityLink\"}, {\"Lang\":\"zh-TW\", \"Value\":\"松山Citylink門市\"}]}",
      "Phone": "0981-885-000",
      "AvailableTime": "AP//8AAAAP//8AAAAP//8AAAAP//8AAAAP//8AAAAP//8AAAAP//8AAA",
      "State": 1,
      "UpdateTime": "2018-08-20T06:34:37.003Z"
    },
    {
      "Id": "5a36c682-266c-4270-bd73-ff94d8060500",
      "GeoPoint": {
        "Latitude": 25.0269742,
        "Longitude": 121.5262845
      },
      "ZipCode": "106",
      "City": "{\"List\":[{\"Value\":\"Taipei City\",\"Lang\":\"en-US\"},{\"Value\":\"台北市\",\"Lang\":\"zh-TW\"}]}",
      "District": "{\"List\":[{\"Lang\":\"en-US\", \"Value\":\"Da’an Dist.\"}, {\"Lang\":\"zh-TW\", \"Value\":\"大安區\"}]}",
      "Address": "{\"List\":[{\"Lang\":\"en-US\", \"Value\":\"No.129, Sec. 1, Heping E. Rd., Da’an Dist., Taipei City 106\"}, {\"Lang\":\"zh-TW\", \"Value\":\"台北市大安區和平東路一段129號\"}]}",
      "Type": 48,
      "Name": "{\"List\":[{\"Lang\":\"en-US\", \"Value\":\"Shida Heping\"}, {\"Lang\":\"zh-TW\", \"Value\":\"師大和平服務中心\"}]}",
      "Phone": "02-23511611",
      "AvailableTime": "AH//wAAAAH//wAAAAH//wAAAAH//wAAAAH//wAAAAH//wAAAAH//wAAA",
      "State": 1,
      "UpdateTime": "2017-07-12T05:51:40.867Z"
    }
  ],
  "CheckSum": "66fiSgcAAAA=",
  "CachedTime": "2018-09-11T10:17:14.8232478Z"
}